latitude,longitude,name,similar_entries
13.022860036406271,77.6889113638505,kbyJYJzqEVkEmpc,0
13.093674816189669,77.70277883001796,qbgufTPzZEkxNHV,0
12.902878648292315,77.63320683133851,XWIXkuyDacCmsaE,0
12.864532497107326,77.73143549579069,PWMPzEhgQSIJFtLl,1
12.865321165438637,77.7314729992191,PWMPzEhgQSIJFtL,1
13.070456018571468,77.61095504838325,MHveToenbpcMPeW,0
13.002355807337722,77.68354833818422,WItnvWIntfoiilf,0
12.98265490445029,77.59337744207735,DPjNIjFDGUdRaNP,0
13.065281841410734,77.47249963352621,SMLuzwDVgJxZDJm,0
12.990463234256683,77.67294947673729,vAbbuCYbFLCXICj,0
12.909937845030036,77.68557472225271,rLfczOfLhEoRnGZ,0
12.938959131040832,77.46586954486291,edieHBeImKgBQAJ,0
12.901291142437978,77.67374439217214,GOwLhWmXEfYOmVX,0
12.889252276801471,77.59694536804952,orOQKFbRAoHeqcJ,0
13.093738229959008,77.71307803700402,CdWAxHeYVjKBRoq,0
12.983261295304194,77.67860107706478,lqKiDFBZBTWUez,1
12.98372612827221,77.67840867602989,lqKiDFBZBTWXUez,1
12.90105404569474,77.72835216668719,eNmJDTcGphYUOiL,0
12.873688787580445,77.50616775642054,sjislLxiXZmXLXrA,1
12.874079493237168,77.50552922468972,sjislLxiXZmXLXr,1
12.999143465806814,77.6242709621707,PMiOQVrAkdXaIku,0
12.990843895648302,77.5440597112632,tnbuHQPEFCTHbM,1
12.99117668224228,77.54470053564766,KtnbuHQPEFCTHbM,1
12.91219248439651,77.73902379020363,XLAftyVglwWYsGW,0
13.082419121567929,77.49799200257667,rZxvAzqBqmxjOvp,0
12.912486140806315,77.7199094108049,zQDGraifUKPvJXrh,1
12.912090285613802,77.72061060421989,zQDGraifUKPvJXr,1
12.999385526105842,77.52447072691433,nDUUMkFmhvWSeKA,0
12.878808961138802,77.59037237914158,pTSAacswfCkLTrH,0
12.951539591047544,77.47294796577847,LnDIkeWZGiDzBbG,0
12.8882750559302,77.6045936367366,ChJfRzoluYXLLJA,0
12.983947369705833,77.65270791483387,SwTyWHAtgBNNwyO,0
12.988933299672844,77.6135886686879,kpkmIKHoUVIufgD,0
12.878666224798664,77.58388550743625,IcpEXtdzmmRLCWr,0
12.995080173448487,77.65264226480396,AjpQlKTWzTIbhZR,0
12.89721099801046,77.54057680717833,fsJxXgslhutMiTc,0
12.87863062732313,77.61571364347697,KdyidcbCRDnYnmN,0
12.865956458252535,77.7382320646334,QFXbeahTXokzxXE,0
13.009243799656282,77.47278516130243,IcDAjGOxTMfSHPF,0
13.038364959722797,77.65188765834407,TVAaGCcKLfPKBSc,0
12.890396541175786,77.51178720489396,ZqYiEiXtnNdnMQd,0
13.05053951541846,77.5644645133722,skziWqCsJpYkKUr,0
13.094561099592813,77.70123553132788,EzXfmMXrcmOPODa,0
12.996804308584515,77.67688770773503,osLsWAOQUdGDZYQ,0
13.082417744951508,77.48956202410079,xaxGBTpqceCpeQo,0
13.094635211576126,77.67534984195395,vowfjrCAhFjsuFU,0
13.060097162171068,77.5292802194977,sTPYKDcRDklHquz,0
12.957686677642144,77.44905194090286,hERpHEmvMnatBqq,0
13.0839943020055,77.64385892644782,lwzJQhDNjFeZaGu,0
12.941266632251436,77.45607967243131,ZtGYasvPbFraLKt,0
13.079364414475078,77.54146125669205,scHiTOxyvnkkeoK,0
12.920466687436784,77.46194735287851,kDCpRTCvAAxSHki,0
12.910422441231065,77.59244420713948,IiUaIKLepwZKsK,1
12.91128729120406,77.59196143907485,IiUaIKLepwZlKsK,1
13.061704191299947,77.46981109255367,YThcnZeITZSBWti,0
13.017528953796576,77.62423507924213,UGMWtjvSRqgJVnG,0
13.041627852440817,77.72598449428236,OUidkjxBLedTuHH,0
13.033651630319612,77.71765686327974,izdTHTBEbYaEgOX,0
12.99804690574572,77.62951874620994,PUEPIdrCLOanVoe,0
12.906721488679834,77.703402737544,AHzXGncOYekvbc,1
12.905894120524152,77.70314403967068,AHzXGncOYekMvbc,1
12.870097156197234,77.561422159409,wUimqZxiywwEpgW,0
13.052554034724048,77.72506751778647,WmrWTJjSeoDNKrY,0
12.854642265109044,77.5179598672417,PSKniQjkACaYDAF,0
13.00623614473353,77.64876609500438,ldVvnlZYRRQIARe,0
13.001475807423242,77.55459404363185,zXFOuQMpUCQNvwN,0
13.016351065442011,77.71404579925819,cfCcavzCtxehzgB,0
13.09147894409711,77.64326136511889,bYYGjWYrhFUbeMw,0
12.873426272892434,77.5921946937887,RDRnTMfmYfSiWLa,0
13.028659386729384,77.50803626398752,DkRreiaFouYeugQi,1
13.028495876891585,77.50866651128297,DkRreiaFouYeugQ,1
12.964336643381412,77.61389928547896,UhTpjPyNxMNPLTu,0
13.080471963574963,77.54533922401212,ZMBcVAKMKMvEWGe,0
12.963957957891685,77.5837200103863,FJPspVZZjtCpGhD,0
12.99987048203448,77.55501223440146,VVYyShvmxawkABS,0
12.904325943557756,77.56540885997418,FtLcazuLGZorHIp,0
12.869157461734234,77.55454982733838,QXhfUHXfnEuMLzK,0
12.905168032394233,77.5355798459731,MOevNigvbIPFlIw,0
12.875896286236395,77.53438207632158,yedOHCLujmIAmrw,0
12.98390380633271,77.67301245978192,yEBaScGavnPNhaO,0
12.890110831870947,77.69536264026017,gbxCPStfxHtqGPj,0
12.866617755019345,77.70629123406499,xUkXBAtfaYztalY,0
13.07524687410115,77.67856557014484,LkdKFkvwYOizHhG,0
12.980733152028042,77.52556090482467,aXvBGKUTNkPDxiFC,1
12.981675576082754,77.52547079308427,aXvBGKUTNkPDxiF,1
12.9300119012902,77.64535691047556,SdxKQfPDkfXEQK,1
12.929778624282552,77.64581473048007,SGdxKQfPDkfXEQK,1
12.909851255891247,77.58992158916205,rkWeIcJsMGhJvVj,0
12.929430321928512,77.50693086836928,faGJXWFYNHSPmtc,0
12.961521794123197,77.57741532769106,QZWPyfoWhsGVegx,0
12.858558717824383,77.5109453535563,gimvnlEtvGcieTP,0
12.902685707150813,77.46886736718902,kUeXLNDvRBgMgJ,1
12.903632180722267,77.46820673983098,kUeXLNDkvRBgMgJ,1
12.921842339897498,77.6929273744465,zMnIJyjWeDzIiFN,0
12.97348295810113,77.60259963365255,JJppBmEBESHHEKM,0
12.886193657931258,77.73511735093368,iLozbVApJSXmlET,0
13.064702966701422,77.49609751621796,qRkXfDsDXmkPhiV,0
12.865977089105556,77.71936637402595,djfMAJHQMwctzlr,0
12.908993466406608,77.56406845773755,aTVCnxWtroJHYze,0
13.052556859213947,77.49718136259126,KUDVyRreQFprfGM,0
12.885114665739929,77.52955419628107,oghZJueuCoOVFFb,0
13.095235978047375,77.70128319630311,qwyZbldyIiMwAtX,0
12.988970331127083,77.66838578721922,mdwjLVCzawRJRbF,0
12.955737528819505,77.61363584129509,ubwcOdJpSzYjTsq,0
13.062249102271164,77.51225826728168,tjMQLReAgmwYMHS,0
12.912561157517365,77.45269410198722,WVmetzSiurfiAUL,0
13.05794786650627,77.49674734038459,ozDTqvwhYQBROfD,0
12.942994116993807,77.54395972660689,kevkYpwoeByGkFr,0
12.876977716210854,77.65820070784042,dMUDcoSkcZbFKdV,0
12.9609750742182,77.57004911513958,kAbqVgEBpxFnneeo,1
12.961413207268308,77.5701986714893,kAbqVgEBpxFnnee,1
12.87696321330928,77.73722144896529,lTtlymCLWsWZWsVq,1
12.876734974137625,77.73676928056967,lTtlymCLWsWZWsV,1
13.02433907672632,77.56113473638331,iBRAngLgCvBRSdG,0
13.023596018993656,77.61059258513713,OQwFZvRDfaPmST,1
13.022952201172007,77.61072905674307,OQwFZvRDfaXPmST,1
12.882688890768325,77.66603175839333,phXvLqAWrLDZhtd,0
12.985068405516786,77.644001918419,UHFkwweTReUSDKq,0
12.913284860683058,77.64198736990933,NibgfyKYxNWbeKLg,1
12.913891870741413,77.64292343726254,NibgfyKYxNWbeKL,1
13.065421730944058,77.69673169859486,qJppelDtodtuwlS,0
12.860315387151598,77.7143775743037,oUvkVqDnWziwqkHa,1
12.85951774445022,77.71387691147562,oUvkVqDnWziwqkH,1
12.890606168163076,77.45334686478998,gJCMWixYCxiCsRi,0
13.020305562227255,77.5442600086023,AFqPgmEocwIFzLt,0
13.076336636054206,77.5082574295252,ToRGkjGtfriNKrG,0
12.893467960567875,77.46530154187165,uSpRTMsPPxpYrXYN,1
12.893056501237504,77.46607831104976,uSpRTMsPPxpYrXY,1
12.992600358225152,77.62052874789671,FWnMoObNBQumEbF,0
13.04168760924579,77.64935554543437,LXeVIjVTvcHGAuR,0
13.078606164277724,77.7223662971908,VbKDuThUkVhCEke,0
13.0413161250691,77.55980602980698,jpwlGIswRSROHnHt,1
13.041375542186174,77.55885515583745,jpwlGIswRSROHnH,1
12.887756245970763,77.53659350005746,iULvrIPjlCxIbaS,0
12.988600480293544,77.57209660370212,dqBETBbjtnmCjfyH,1
12.988729396959902,77.5730175491244,dqBETBbjtnmCjfy,1
12.863799004993828,77.6445252884224,nLZxHFpewcAGrx,1
12.863857839760296,77.64525981346615,nLZxHFpbewcAGrx,1
13.072817905036429,77.69625070264614,uvzKVBQcyXHtZVW,0
12.9240467148676,77.53196518120795,QzpbfuMOwCwbYwA,0
12.993881315442666,77.490472819496,SHOpYBxDzUqDXVC,0
12.855773228585832,77.4635382285752,ppNmjapNRDwzKSG,0
13.016537703333771,77.66186593930021,VDpxVLdUJWsrQRd,0
12.903448960347603,77.61073602008587,NIhGiaebgXkNTXz,0
12.996925421274756,77.60442642157506,vbzvUUZmcsYlSNW,0
12.860435533116888,77.68204501455031,tKPqearmjjeXJKF,0
12.946383084712975,77.73090426762626,tQJDehlAWgvqTVj,0
12.855660930952936,77.70590251044901,YlJipaMJEgYDLGL,0
12.923196081773847,77.73550458655778,sybMQAzuUVMldcW,0
12.900088937115903,77.52488980876971,kNhxxUpqqPJLmeh,0
13.041367049616436,77.68444569296669,DoogkGPglaOVapTC,1
13.041282667497551,77.68541158942642,DoogkGPglaOVapT,1
13.047106620581305,77.60154707312995,AfxToToeaPWvZWPw,1
13.047939981112282,77.60200775302715,AfxToToeaPWvZWP,1
13.0435234384504,77.60829812761374,oktOgZVpMgzkIoQ,0
12.918628289352752,77.60075689383656,dYtwXpiLZZGKyXp,0
12.956031520622656,77.74012492847581,NnvpamKFZgFAymr,0
13.071556629798,77.47753799223393,epgERAsQdMmYvlWO,1
13.071232120777262,77.47760892661283,epgERAsQdMmYvlW,1
13.00589489600269,77.44596756912635,OIuTonvpKemVxgj,0
12.985372620688407,77.50694461983957,cJsgpIDaapwLLzL,0
12.956936676183368,77.70543799380077,QGKQMGFUVAUvHwbi,1
12.957702860098651,77.70571513564552,QGKQMGFUVAUvHwb,1
12.87397810072609,77.57244539745791,xbqFuavSOQEbmvv,0
12.888716682375655,77.68973237486811,jXlmRpRPbcSCigw,0
13.01197463582547,77.6634152294553,zPSWlKdbuVOtkqR,0
12.93490366167268,77.72460942191499,ZxqUVgjukCQVYmT,0
12.984760393104564,77.69799223313464,cNiURThlENYskRGc,1
12.98379326762034,77.69712205599838,cNiURThlENYskRG,1
13.072866889856384,77.46666114456406,DBhEnsjgbbSoIUZY,1
13.072764361338807,77.46578816770143,DBhEnsjgbbSoIUZ,1
13.08963594037944,77.73822510633508,tNKXZupORAhTcLB,0
12.92785866309319,77.5202284836594,XfKIVKiFANgrzFL,0
12.923348531347644,77.6777859617299,eDSyWpjMyyocOyY,0
12.956780061053566,77.47937813881859,mMwvSDnetrjTSDh,0
13.069205242417286,77.74304771295466,kKcvnpZxEITgtWn,0
12.996603997740378,77.6732917286815,jsCAcWwwZaVQJWj,0
13.036746311770452,77.49266374342837,IpIbcehVaYtLLQH,0
12.917993898622584,77.6033346325464,UwyonqUKbSPzXSa,0
12.90456522566418,77.5269870456673,pXiQXYXRSplaDGz,0
13.08510125727592,77.45277820218568,BKDioYovhahsMLe,0
12.865343457895348,77.52254096479727,AxKufLnhldOPnv,1
12.86453358805387,77.52222343546472,AxKufWLnhldOPnv,1
12.885317731180356,77.6798333493538,NdDtvDjHpfaPiyH,0
12.876307472750092,77.54438747922613,zqRqksOVHZNxmRj,0
13.074674598041211,77.57028659348619,pttxSxLaIpzZxHx,0
12.940810811369593,77.70197591904015,KdTDLHVuPULRgFl,0
12.860928157946915,77.69970491145052,WWNOGyYeqfvkmmx,0
13.048584050055588,77.46829898047024,TOKCbBDbOFiAkeE,0
13.037340469485128,77.556055789032,JIisjtNghRsdZr,1
13.038002292899373,77.55518970910002,JKIisjtNghRsdZr,1
12.964937116743272,77.64424296233474,KMXYsjDVZBtjByM,0
12.99332458298431,77.47070937109535,wybMltMlRsyUSZUm,1
12.992645532787025,77.47036482863632,wybMltMlRsyUSZU,1
12.97645101507344,77.69596626361553,eZhnAOaNvkrmaZd,0
13.003310588595037,77.71872418395287,HhAfeqRCcyXQQMC,0
12.877380319595192,77.62435024384662,IUIUrQnxTdPuvgN,0
12.897589395345712,77.72644443972894,NvfVdgksiTNCgpF,0
13.020006910444373,77.63064690871603,LrmrIIpDnzxnKEfZ,1
13.019958540069586,77.63117946817779,LrmrIIpDnzxnKEf,1
12.993784480687092,77.54732491896804,JPDlSIxcnMvREbx,0
12.859828871196928,77.64417158385288,LGohaCXZoyALWDM,0
12.854450254586537,77.44794147108246,hsGOVBKAoXyAoNB,0
12.91486517147418,77.62069407674497,NjBuSQsdLLpocYw,0
12.97371043441312,77.61435900074176,XWyBWdhElXWkSsU,0
12.866080525723588,77.6778206968997,KLbWzaMSxQizCvS,0
12.945651780120432,77.48222520338571,jQWgMYpmzAHYzHe,0
12.960093389196809,77.69009933630142,KxRKKqiAJLYhYMB,0
12.957595206397286,77.65464293501037,xKYRkBITsRosvMx,0
12.864746145717993,77.47818832071141,NRfshQaysaMRWIA,0
13.02408021173729,77.61917823277334,joTFJKovMIUVQtvT,1
13.02313642694156,77.6188856392673,joTFJKovMIUVQtv,1
13.08573377038932,77.49010419865816,kpqhwoqJYWmaitW,0
12.941648937359348,77.54177971343692,UWPAOdWOoDDQLsI,0
12.862181603204514,77.46421702618314,IfCkjzOQKtbPJee,0
12.992370716821002,77.69933522285154,KdTUHUUKLYARyfX,0
13.0878617962132,77.55324619759426,fEvlCaVXFFuAHzk,0
12.88152577605366,77.46534213158606,lLKnbTkIlrLJifE,0
13.082620353557733,77.67532087942362,GVuGPdbPLNDBxgc,0
12.942065728480124,77.73847981478065,UAuIbMnrqHgViZv,0
13.060270998801476,77.656210474125,ukAcnnNJEQJefQP,0
13.050048880465722,77.61627522926547,ArnQxoKYkDZyFatX,1
13.050933020153586,77.61541489644745,ArnQxoKYkDZyFat,1
12.955848113423874,77.57710088020065,ooeqqlxEaLOhdIr,0
12.912617786795586,77.64010510097604,OAAObErlxdVkOet,0
13.088860515192447,77.62559194175351,hefDlnEonRQwJmB,0
12.926325962044828,77.61283746633481,CnRfsPRFUuNJhw,1
12.925830489138152,77.61288427596799,CnRfsPRFUuNJhAw,1
13.05390596129051,77.68370116303475,ryFAGHHkenZGxjN,0
12.869230061023067,77.63807033999299,dtMmdVfCfDeIbiL,0
12.968524843386168,77.5889061618351,jpHAiXjdJjPimTc,0
12.87193944546078,77.5981432201486,AtAdbtgwGLoFlic,0
12.980145232405622,77.59174941119585,NRWiVJWuPOCeZVU,0
12.8561194508244,77.69788928872615,BQpBtdNGIRjYTRUm,1
12.856367845397632,77.69812096038447,BQpBtdNGIRjYTRU,1
13.074672612327694,77.45991592136482,sSoPpXKpdFYXxHF,0
13.02371107013222,77.54687108462714,glFalYEzWEsaqSX,0
13.095226718940271,77.7350317576778,JdJPAWxkuCCAKrx,0
12.953014246057304,77.54120877680218,qNgKGyXMCehfNnW,0
12.920542628513248,77.58031382985547,dzuXQcYlKqAjgZJ,0
13.091079884468552,77.65082670257753,tnEYDnFDJouBjHY,0
12.948789513033107,77.65649654635507,lWndPrbYBwtVjA,1
12.94874788759558,77.65738603952238,lWndPrbYBwtVjAU,1
12.97266173928224,77.66617967948828,EkkrUCSmBLTSTz,1
12.97227366105218,77.66638536493184,EkkrUCSmBLTSTzC,1
13.05937872081814,77.59086556244421,fsQDbbsUZCWicXN,0
12.9838044455549,77.62490628721899,hwqgDBUcZbgmHxzw,1
12.98325809316214,77.62456361199615,hwqgDBUcZbgmHxz,1
12.938626021188425,77.5008422388505,KFAzSYSuqRxBxBz,0
12.873641879792304,77.63736943172368,TadhTexQbIhorfb,0
13.07641664527941,77.54604293507771,pXRWmAVyotyqYtH,0
13.02933631899468,77.51380417011072,UlwrkwvpctzsLBG,0
12.95972503560298,77.6520054314993,RciNFriZVRkMnhL,0
12.864781175259758,77.51605084206672,tSPaHnvEbJJEjru,0
13.026272913134571,77.69457204498492,wdsAMecxiDrAamd,0
13.01178860958911,77.49533129620495,UDwbAQBMeUPfXca,0
12.943048093294951,77.6117946792802,FFPXMGtUqxDXodv,0
13.0041429909131,77.57626910736319,OhHSbmTBeTbmTKz,0
12.88916236825773,77.46684160282129,kcLzdPeCnkqlhlv,0
13.049015322648197,77.70099857968026,kJwjWmAbRrpSeFW,0
12.862253188678062,77.69304177577604,BQyMXKoPTHzzoZm,0
12.862223734334902,77.48145978294608,ExGKmWBmEbrgrzX,0
13.022900912404197,77.72603844658217,acketlKpXhcGiMcw,1
13.023813559447447,77.72701595285761,acketlKpXhcGiMc,1
12.921329814302062,77.65404871111215,yOmcagHtiMsceOH,0
13.0028379497566,77.67110015790284,zsXGztDGTiYIiKk,0
13.014058430176547,77.68870919389487,biSfdxNiyizULhFr,1
13.014668107435602,77.68940311761234,biSfdxNiyizULhF,1
12.881502467901583,77.651931183901,KqNJrejuJqrVjwan,1
12.88202623318066,77.65240043155025,KqNJrejuJqrVjwa,1
13.00233717353651,77.71554150170374,GDVQKUQtzFJBWkY,0
12.921253237963857,77.65875185329628,JwWgwFfCibUbkmx,0
13.08375499578768,77.73490608622076,vKPmBXuxEARXlZg,0
12.94248034416279,77.6863718447919,hGTRCNOMzcyxMag,0
12.85930043118904,77.62225386336692,KmyDmxIapLOKhiW,0
12.875932506270509,77.68085992283225,oPsIbIGTAWgckJf,0
12.941760278407502,77.54600123669374,WWPDDTjjKNMDtap,0
13.035150143983053,77.71643425949962,hiYBsWslVlovoPY,0
12.984034930524128,77.63529443607555,lYSgWGNZnYmBGDF,0
12.880450079912151,77.71691688742465,kqWIMeaoZrwqGW,1
12.880257101540009,77.71619509732918,kqWIdMeaoZrwqGW,1
12.967795840141378,77.46720126913056,IWHcGBYNHUYKZOJ,0
12.988959488362129,77.52393824459799,zhaWaYdsRLmTooJ,0
13.047809700233993,77.66422930668637,hDZCNhmjBxZkXDv,0
13.00340552138041,77.62266594427153,HFdKKRkHUmdOVqw,0
13.071465324803423,77.44629196576336,rGkCicxdHNhBRWc,0
12.911427271292458,77.56110917337057,ccfGqYGPOcwLBwZ,0
13.094701156635042,77.64107442540937,IXkWqTDSNvXiafO,0
13.062125588632744,77.50885443333213,HLuSmtUuvqhoyMY,0
12.933610264850335,77.6141503404373,OdlpurLXUGhiCaS,0
12.866478938467486,77.58657476451842,kLjDePipuNdQYRY,0
12.936271323326196,77.55350704824914,nvdUvfplxjiPYGLK,1
12.935942067948242,77.55277629852074,nvdUvfplxjiPYGL,1
12.999274753895047,77.55183662910922,wyahFihpVcSJdck,0
12.88161616722303,77.45850959145827,jsvMAeBSSLnbfSv,0
13.09073737309692,77.65700944161512,docNiWIhtusveKq,0
12.995647938492295,77.72774753400029,OqJijwWCfiglkf,1
12.996545517087128,77.72680079196536,OqJijwWCfigslkf,1
13.040510542117008,77.44930125130489,hTEBAWYvcKuAvNuA,1
13.040691830321908,77.44958029828143,hTEBAWYvcKuAvNu,1
12.9024870061424,77.45840395727625,XNerJTBBvYyqRNc,0
12.89796523051202,77.7399753856908,PfbzjRwwQMklEiD,0
12.871993340685457,77.50966818349103,CYuBtPCgDJFWZz,1
12.87297277725915,77.5092097432339,CYuBtPCgDJFWZLz,1
12.967836570531569,77.52564738467736,LOgdSCRsXuMQLJ,1
12.968423492485426,77.5263591647188,LOgNdSCRsXuMQLJ,1
12.931736486920368,77.48186012999109,NKPftpjZlAggUCv,0
13.067655108488085,77.63704130975269,bgRZHJqNIwPCuMI,0
13.00164404829794,77.62958002219757,ZAJnKCFBinARdsn,0
12.863074968569457,77.71872802096837,ZWJQYMoZEoklxce,0
12.877933850460602,77.48893867737064,JSYIWDDWPYOeWqO,0
12.855694421005415,77.66597271056196,VKbZbsWmEVpAxYQ,0
12.978727056534876,77.56493962640232,wRehcKJMtKwLNkl,0
12.905581581460352,77.7081927898423,KjfmIWbZbjJvRHL,0
13.009394151552245,77.62518681170839,ElUlHRrHhaEfcxX,0
12.875187089600148,77.64271436862619,biQyPcWBIzkwZDl,0
12.987291080653057,77.68729160943059,tbmgCjpsBBaQtEq,0
12.897874314647195,77.71540553405434,GJwyCyMNEySoQlS,0
12.946085269735786,77.56985893843552,UmJKGtRBtZMvAiH,0
13.096715206797793,77.73976603229612,iFmSXJZYvhzcuQL,0
13.050586774712908,77.60248186504988,HHfmFmqtRRrFqud,0
12.905612725851448,77.53067755007163,UdmPbaSQHXYUjXZ,0
12.879337510490284,77.66047713956009,RZXzrxjpGnUnpzq,0
12.885201957566672,77.58790442629811,owcPWlILgqCOtpM,0
12.928280744405551,77.49802359939844,jOJWONdYjTcSjyj,0
12.860238236120928,77.53468606046233,cKuUcmOiFdoBYHZ,0
13.060814831284784,77.5237514701282,SvtadFcxZZhZmXf,0
13.06051125222901,77.6900964266167,oLLotcExJdQqFbd,0
12.884131183320212,77.44672143023804,ikONQSMkWmihgjP,0
12.990572001910747,77.5568528047748,FkgmdXfQWFLiMCw,0
12.88258121248434,77.51129916237748,KmmBqkaneOFwVfW,0
12.921870378885348,77.58995304900085,qyYbtMGMOuVbnxA,0
13.088532624318292,77.55927265920825,btzGHZDqWolXMWe,0
12.977211745362393,77.47490206122878,vfSyjUIajJLcGeu,0
12.88060336993844,77.66553239263794,GfSfNIaFCpgpBes,0
13.07758505498536,77.62937571414975,PJzoRUmbXOEGjGH,0
12.90307644927818,77.73529386358086,DixjOhqtvAdiSWg,0
12.860410715374512,77.70126409548934,ZbRlYFHJZlemlcg,0
13.00562174416363,77.47403696367965,bVWuJHPDKrkGyqG,0
12.97894562093194,77.67529067882526,WEeegLYYvdQftC,1
12.979512285181071,77.67509941857045,WEeeTgLYYvdQftC,1
13.023699424215256,77.52356916803753,ytuqkpYPdwphopm,0
12.995737723240692,77.46042724936811,YfxWxCKlmeOQrN,1
12.996578909171006,77.46102703189466,YfxWxCKllmeOQrN,1
13.086560816939032,77.70122879797715,MrjYiKFDVosaAjL,0
12.947872807626844,77.4770501064582,qdUtWNBvbtuZnil,0
12.988645818816542,77.53089514334232,DBDGxHfguqOEbop,0
13.043459194236014,77.60418237459251,CLUfDxWsNRlwZHg,0
13.032857032495604,77.49677651709341,OCLSBShQbPRvpgU,0
12.906931821134114,77.54691737056216,YfiGoOwmnQLyjRi,0
12.93203102300669,77.73580675858881,YApDJtqauwNgAHN,0
13.020546758780547,77.5931312983971,oEJllKszAxQaEaY,0
12.948942450749657,77.50384471772102,QkMhLEJVsvkOWIp,0
13.041372358779812,77.50291044144336,VLHkwWryfdbdhHN,0
13.030830271968986,77.68109204927613,woLNuGHIyFutqqT,0
13.00777610347502,77.53102153073158,ttjpAppqdIOtlgFD,1
13.008681418475398,77.53104197377067,ttjpAppqdIOtlgF,1
13.081970319072475,77.64048600586894,mZYydyyDPPpPzuvQ,1
13.082611478813291,77.64135173922654,mZYydyyDPPpPzuv,1
13.06963089656738,77.70391190546917,iUcpSxGJjDRaZCq,0
13.04868728301752,77.4603651866623,KdxeZrLpKWPOHiO,0
13.061330598983483,77.65465874383648,DiAlBOqofqXTfiT,0
12.853504814210924,77.54323261990245,qYiNGLQDcCBbBNr,0
12.856242552156216,77.54152273365084,bzzaIJThXyJXbor,0
12.93277823404058,77.57048618248045,nrfjoBfdogrQQxd,0
12.930001031187972,77.5111738259859,QkwzQyaQqYbgzoP,0
13.085766459539768,77.65233988776347,cgWUWBJqaVrOolO,0
13.062307813326989,77.49254697530905,eZVvqYradDFHGWy,0
12.959026230876434,77.45580672878855,InXyxxYvuOtrwxBz,1
12.959393805006028,77.4551648807429,InXyxxYvuOtrwxB,1
13.08383291707718,77.7225306781199,jJVysWnvThEfVN,1
13.084566707224695,77.72250141649225,jEJVysWnvThEfVN,1
13.09475997477985,77.54369528765183,QcmbKHLRVzKopHoz,1
13.09444933031956,77.5446840225588,QcmbKHLRVzKopHo,1
13.028646743711718,77.54081547085381,uOfuqQKCfUvxLHzl,1
13.028152795007465,77.5401814132808,uOfuqQKCfUvxLHz,1
12.88636709348197,77.57976962571708,ZqvgwmPEoXzgQv,1
12.887177567085196,77.58021503223337,ZlqvgwmPEoXzgQv,1
13.004264576622074,77.56316645808795,yLlHSCHUezLTStAe,1
13.004859567971828,77.56383840233818,yLlHSCHUezLTStA,1
13.0712862742982,77.5473429839044,CrCgXFmgUzERwQn,0
12.952581272261009,77.59260230889464,zpVccYFOysOPBb,1
12.95173791816718,77.5924337409394,zpVccYFOcysOPBb,1
12.909540111736163,77.73538139129816,bbyIrLxZerivvyH,0
12.8666725004145,77.65034938717764,OhvhIuhUeIhJVxE,0
13.03715708517685,77.6193845659269,OlBYPNYBsPdUWIL,0
13.068043114409562,77.58078352093078,jAuCBcIOebjPtL,1
13.068513832472346,77.58094941255723,jAuCBcIOJebjPtL,1
13.07265733459942,77.60297409013289,SPGFVLoTKeaphGl,0
13.089957257233053,77.69899532846183,LQfhhHnoOZxXJZE,0
13.01961150467799,77.61659044724574,NjvldpTqMFjNvMv,0
12.926823676619389,77.58184943586507,UHvHflhMWGpvEzuo,1
12.925973954751749,77.5815832823657,UHvHflhMWGpvEzu,1
12.96581469336097,77.5269333927206,jPKsYKmnRlcIteL,0
13.04119265108171,77.47023634589236,BoJCqoJklxplftqF,1
13.041767170437144,77.47074862380704,BoJCqoJklxplftq,1
13.006894686743175,77.57664270567749,YWceWqRLvizUsFW,0
13.027664847425886,77.68831148502451,abPUkveuBTZyvNQ,0
12.980829220717792,77.67176533193587,eXmTPoTnqAZhYnV,0
13.09303929372572,77.5040550775161,xSqLSOLKrljikUy,0
12.987105940751633,77.6675700141708,tlRKGSfyXpdnszG,0
12.888148074058355,77.49578211490498,riKAKZfpzWWgqEC,0
12.857767444414067,77.55587183813707,UaNAjlVwovchJv,1
12.857468690240426,77.55611115267352,UaNAjlVmwovchJv,1
12.925228694522502,77.53493872611567,SYgrIhsaCxBHBh,1
12.92609060825365,77.53502269361812,SYgOrIhsaCxBHBh,1
12.878184565201378,77.67181095732555,RXWHxGrDCilrNTm,0
12.991290921629334,77.46277796989571,LUCJDdIUoXjSdke,0
12.976873314072744,77.67744447070262,GGyIQNLuyQuVsao,0
13.078424846022434,77.60425564179276,kjLLmhjgfgWBGfn,0
13.004949913349392,77.59111131421943,wWunSrwPQqAqciY,0
12.853371834698338,77.62566124238208,ZfPuYUtJPaAyrzw,0
12.906391780256648,77.7326947953712,lFiZgUTsYsmCcve,0
12.891257378855991,77.63532350212812,YAsqEAHoRqfIXEu,0
13.092268276719906,77.62601494566229,EYSEhwhuWVPoNFe,0
12.901460082871486,77.7391517852236,zdSedwsmTjFbTRq,0
13.092552190651489,77.52968714999449,XbOtjZlbsSqrrYRV,1
13.092026407912927,77.53052606656772,XbOtjZlbsSqrrYR,1
12.919368332629396,77.47650191099304,cwPnQlblARQNxgc,0
13.018302469482109,77.65401141826068,TAevJytephHIrIRM,1
13.018549738860244,77.65474959636333,TAevJytephHIrIR,1
12.879764527270344,77.73931861222104,uRUXGHDRExEeeHb,0
13.044377366008035,77.57807889798173,XajaetzVTUaSpHm,0
13.05177168928112,77.45234935543199,BNeHOoSzriPyNbA,0
13.027613366078,77.68489832854408,lCARbRkAOZNJrMgI,1
13.027580723084014,77.68448847303772,lCARbRkAOZNJrMg,1
12.992742980401294,77.48944555048838,jVMitFHFeBXylUO,0
12.990370286981738,77.71140506978251,wTUEkXzUrWajsum,0
12.92940586658365,77.69857803678279,KgFlmuNurvKcSpE,0
12.976713092694547,77.50463218125647,xeWCIHHPNhwOMKl,0
12.896891293025352,77.67903660800104,ooobimnhkeFFtyD,0
12.931830959872045,77.60181358849665,YoKsktuOqMWVqm,1
12.932467281893617,77.60277643791846,YoKsBktuOqMWVqm,1
12.889432072823972,77.5288189767805,cTnDlXxtaQulmEF,0
12.877060995522529,77.53145068105835,FTBTVigRRBRuiOx,0
12.93938223136852,77.61568709073973,DiNlziXGNFumRLf,0
12.98455143572829,77.65723646200681,PXyatwKsirkhLvW,0
12.952919445951666,77.47028195097194,xYplogMXRUarbHY,0
13.0339224966396,77.68897683771405,TXMPICPuOtKzpvz,0
12.936444832617754,77.52063706057695,dgqwhXuKotQYyIw,0
12.93147193438666,77.55582921830022,RdrWinoSIaJqtVt,0
12.955291934649962,77.48937718219112,LGJhslNCbtqaTbd,0
13.06189198239467,77.73560525481967,YXdWcQptEPkDLGp,0
12.856561824670608,77.60839427898702,biVjwvpxcitlbyA,0
13.017825132599818,77.46142487924324,cdWCGGBLCRmsXsiJ,1
13.018632674391602,77.46191952086491,cdWCGGBLCRmsXsi,1
12.89941110596687,77.48385649870379,aLkNGsfsCEGxqM,1
12.898746014598952,77.48390059844728,XaLkNGsfsCEGxqM,1
13.090514716138486,77.60186212613566,qYgMcfTPkSWhblr,0
12.954767600247472,77.63418281713346,RINznJedJopAEuO,0
13.056436140429687,77.71430746884919,IXDcuKmOfWjqfTF,0
13.062836704710431,77.63304182965618,JRqHDdwTdpSwjDsg,1
13.0630268656465,77.63275476839551,JRqHDdwTdpSwjDs,1
12.923635371973518,77.70410993022077,NpVbgsRlsPylVWd,0
12.875515307178528,77.72187386576033,waByRsUvHYbdGYs,0
13.072377028373188,77.57182398729519,UElutIQuKJDSaqW,0
13.026224015011156,77.50874095838464,PXJKpsMNmFqQFJh,0
12.886586921706996,77.51896593535352,gzvxBpINFCOewtSW,1
12.887309731293186,77.5179682784037,gzvxBpINFCOewtS,1
13.003247578270836,77.64577376183108,TlErXeVVUQYjTYk,0
13.034152599876396,77.46203220967469,xVddhbRRWBeIjtf,0
12.919910684692203,77.53803797357408,EyZQtxLzvXHireJ,0
12.946662803913044,77.52429071320944,cswlTnDcEWpQpxou,1
12.945680781704962,77.52498337993744,cswlTnDcEWpQpxo,1
12.897650880036393,77.55894320450886,lmGZlXHKNgHlXp,1
12.898010824914971,77.55808453233558,ElmGZlXHKNgHlXp,1
13.033041859634263,77.62416076125638,iklkffXSjCUHxIQ,0
12.882033979834128,77.67885592684016,kqGadMdIdxKBIOI,0
13.061618582608755,77.49529282379761,qBuXyESZtjaDGgdK,1
13.060762269694136,77.49607772181153,qBuXyESZtjaDGgd,1
13.057074609648744,77.48350316835973,sYKZWdrZxoANaz,1
13.05769713750984,77.48279869047447,sYKZWdrZxoANlaz,1
13.050872171436044,77.55466221932272,TuroaYbYlNIIswb,0
13.062214256525262,77.50952990370591,yCpuvRYgvLzzyWX,0
12.999804899801388,77.55179223445867,DrHOJKXjqEHwNuI,0
12.888454027097517,77.71967932933043,YZOvCiKFJOTQAx,1
12.888665316083197,77.72067297345032,YZOvCiKFJzOTQAx,1
13.04909558873247,77.45128752971195,pJmaPlLvlPEvury,0
12.886016688819906,77.58172979047953,xPbNQoupguslWG,1
12.885432064219566,77.58194122930924,xPbNQoupgsuslWG,1
12.904745059392267,77.54158835439553,rYIYHNtYjFVSoMl,0
13.091103064609513,77.49543605594043,oJCeRlktyQyHbXS,0
12.940209275211624,77.51481471090335,jxWFqREAeDtAgXI,0
13.05835581403867,77.68741837965801,kGBtHeuMpmHgpEq,0
12.916918574547624,77.71508755822073,yOuhGskMkKqrSXM,0
12.92428973921674,77.45344438450624,emDdDcFGYYqrVOO,0
12.903492092043743,77.52921367270446,lHNjSOmtfxpNnbT,0
12.959591208365556,77.63745045183157,xMezibpwlNVqngX,0
12.88514945002753,77.74321955371694,gndnSitDSjDFeaW,0
12.902874364469762,77.49675810755431,wiMprKarbLEQLwI,0
12.864265634143862,77.73271906047168,ksyFNqKAPdThAWN,0
12.867917694964865,77.55006626874852,xnbhgsiIJAPeTqa,0
12.91061817772752,77.56472698516492,AxipFwLmDyvRGjR,0
12.899276367164784,77.62636813811311,EPNizAEmwcDPCVM,0
12.926013318837793,77.72910755966402,LoZRugDaZMiyUllk,1
12.926114886329207,77.72900641963383,LoZRugDaZMiyUll,1
13.075595368148276,77.51300378663332,WYsXcYMfbZnbzJj,0
12.952272600684468,77.7380666541642,VzzYSTzgSMjbtGU,0
13.09217246648088,77.64530465187414,JYlFwbtPrweCBKj,0
13.01163494305876,77.67431668796388,oezEyHeDVOrYAFEf,1
13.011936584735729,77.67344414229838,oezEyHeDVOrYAFE,1
12.858246850207031,77.5239583136305,meFZKKwAxeilIPM,0
13.087243002262234,77.52487495945505,UHlPwVoiuYKgYoM,0
12.981203081803429,77.54479951511308,WPZRoaYMTsQMVpup,1
12.981457108691185,77.54394671938844,WPZRoaYMTsQMVpu,1
12.910691791381003,77.69617678367962,sfPHqOPCPxGZxlw,0
13.017806375694452,77.5837586965664,xfPXOmmRwWGpDiE,0
12.923461409718726,77.5895819952991,DvErJmjgPevlfD,1
12.923313709963468,77.58904970216282,DvErJmjgPeavlfD,1
12.97935839458563,77.72664800846883,nWDUOqdEvnKsWsJB,1
12.979487974148048,77.7267759813553,nWDUOqdEvnKsWsJ,1
13.000384517703978,77.51029903565289,tVcDlOFGDstwYGJ,0
13.024564470133075,77.46613448779938,aAvzrrdaQOqVTup,0
13.094288508925484,77.6929521792253,tniQsLbPfCetrVe,0
12.92914065531992,77.64778740199314,zVEEzCHEcXuHXUt,0
13.062279359092006,77.58900499125268,LTYuLaIQBJjvbBK,0
12.96606166856342,77.54967420237932,VZGEVnXHWxFyvNF,0
12.97097488060786,77.44983593200168,NbLRLaMZeWKpvpm,0
12.970641106846664,77.69178250156146,BPRmOjhYDsaQrVV,0
13.020307859312751,77.48933235176736,mDLNrrhYNkrBkVb,0
12.932224815594903,77.68792414133316,uMXTMKgCKAGzAo,1
12.932730400190149,77.68695216019778,uMXTMKgCKAGzwAo,1
12.923398224635587,77.69136666779214,KNvRCdOeWjIHrYu,0
13.078561186807956,77.50824129681948,FwItzhQnBatRGFO,0
12.9338685666949,77.58169025401905,RyuoYrLbdXCnnKXl,1
12.934486567409923,77.58256404478877,RyuoYrLbdXCnnKX,1
12.975638171930582,77.68476773795379,PYVftAEymeiwqUE,0
12.930001257868732,77.49238942189751,zhePgiNmiHoHYQ,1
12.930339441985293,77.49338718652413,zhePgiNVmiHoHYQ,1
12.895469620906637,77.51538948771741,djsDYaOghYsXcUu,0
13.02386142644798,77.60888244143044,zbxoxZnHvpKNCHH,0
12.960469669487782,77.56529090475728,JzIqAQKJfpeoDmfT,1
12.960512970994516,77.56452283937382,JzIqAQKJfpeoDmf,1
13.038286808753892,77.52284241146663,zQqFVILLlYACpKy,0
13.03633810473208,77.65971020275067,yoTnRfYevhoTAKa,0
13.028854461318955,77.56633838537151,mwsvActWvYkMSwX,0
12.87579816376604,77.6751572222999,ScUGkxZliMNHayh,0
12.909745680247342,77.67659867969955,mqOhlXXkbVkWwLH,0
12.891819877311352,77.65294340389708,PccAkEBKWWHkdhm,0
13.00688557209048,77.51718983769025,EXCPcptWVjQDHDvL,1
13.007648570666545,77.51736853534277,EXCPcptWVjQDHDv,1
12.956611068959353,77.7024117659185,SORAKXFwsmJYLNR,0
12.915100706418052,77.66882873323257,pdxEpcBPbNMMJzK,0
13.022580422181608,77.53549343714023,wevjuaOBJKHsdyp,0
12.854345464996651,77.5034097456784,yzkDhRtIxnwzfkJ,0
12.949427376288527,77.55284312779234,AcXZQdYMIluFDXX,0
13.020680564656304,77.70217112842224,bHyBHrVfbFQxlSi,0
12.995252583598376,77.68614379943325,ADQmmRLOfeMgzlV,0
13.049048998723936,77.45771223057824,hYsPwzsWDbYgAAnd,1
13.048868789146333,77.4572591850741,hYsPwzsWDbYgAAn,1
13.031044549713902,77.66156121260956,aybjqCNLZbgrUfH,0
12.98380425242078,77.54985246722937,RJJTwBGiGfvZCtN,0
13.043154188868792,77.66316386660847,rSOgpfYnqZLQBPs,0
13.02329268863213,77.61787639636279,qfLedzHxgHYWsvq,0
13.05537068000316,77.5711631802123,RwJKzpaxklhjesi,0
13.02900926784674,77.47728533778063,wsfgWzAWOsnNIhh,0
12.901779782012206,77.66810575408002,FnGAoLbiMJMdKtY,0
12.978298140165776,77.52987752522675,NCpYrtmwyypFKjH,0
12.874952627348804,77.59617810165517,BhCCfFMNtHCFxsl,0
12.903649874787051,77.52563436623738,iBirySoxFodbfspi,1
12.90283270502096,77.52655160965199,iBirySoxFodbfsp,1
12.916859344014108,77.65687614716701,foBQznTbOvZwGG,1
12.9160135243753,77.65707709651004,foBQznTbOvZwGGB,1
13.02481802280742,77.54999333414663,GiHbrEOEfxfvseV,0
12.95542509698383,77.55852457714533,BzVaRJfRPKuhpCl,0
12.888368586101146,77.56171306366451,XSqodiQhgrHXiSd,0
12.935532821179532,77.70905832288875,BoWRiJHMgVOZyn,1
12.934809843663912,77.70823792133612,BoWRiJHMgVOZynC,1
12.945219813913187,77.59093443739549,VvGLNoGKXNVyoxE,0
12.85934411498384,77.60146765893951,VvcOsMIhONedxaF,0
13.064761675114797,77.68927758710012,pVomjCFCJrrbygn,0
12.86205472193327,77.71751386695922,KtEnHQdOZUmVQaY,0
13.041452355671757,77.4554919447036,drPaLePSxVEiWOV,0
13.090758999839348,77.60381873492923,wvZOXJhDTDlmZhg,0
12.93733952154387,77.44596791799313,IbIdTCcpuVagZfu,0
13.089232287128688,77.61368824629184,acxmwITjTdMqWEF,0
13.03409997906234,77.54836973357557,JWNIUUseMnaVWvPJ,1
13.033313769896402,77.54835317134554,JWNIUUseMnaVWvP,1
12.905964997197907,77.70177179439922,vmYKIgypQphLue,1
12.906154495475825,77.70208383256251,vmYRKIgypQphLue,1
12.909400146065318,77.50590824708135,kDCdycuIJCkWSCC,0
12.97610631439137,77.48960525866778,lqknFPakAOuhQCb,0
13.057046883659558,77.64784390843,TeKHvbebDfyLIxu,0
12.89855051710914,77.48462854580256,FKRKVcjuHGMIMFw,0
13.03614874803591,77.69948620375743,JJUuUXPdHyTbpWT,0
13.060499845098407,77.72834135254051,bmmsuKeQPkivVGU,0
12.92434158298474,77.52994542196797,iozNiQtsHZFdfDb,0
12.990809234764022,77.48966221542787,ksFfSXQGTeLcMXu,0
13.03985282195532,77.53818607693718,dQPIIEMGZTUBokX,0
12.924060128277244,77.61851305664445,DcmvTQYnpMuEYVT,0
13.047124942308727,77.58910573293345,TiSTNWrVPXfqceM,0
13.03769530164308,77.53815457051672,hppPdpLwIrORjVu,0
13.093473179415763,77.69206593933986,FGBunUolhnkXbqn,0
12.964116610179287,77.674894912853,JspFpKZBgApRRQO,0
13.039660989904316,77.50393717875382,LlmLPGYCLgKwgsm,0
13.063284500984784,77.61589981519023,tlsRDyenYjfiYbUK,1
13.06380146830399,77.61535911099156,tlsRDyenYjfiYbU,1
12.989237429325303,77.6921291092812,aohCRUmtFMCcwwl,0
13.018375293954708,77.49883342183827,ZjzsjdpvzAoWHzT,0
12.926152625281718,77.49275366648116,rqZeHwWrZFNeIxZ,0
13.012454240784644,77.73358962520457,gEQBUndMbtEObwJ,0
13.0901966188809,77.70630752754191,LrEaXBaBUHuFKF,1
13.090573725452362,77.70678930030525,LrEaXBaBUHuFDKF,1
13.096564539681593,77.51369708597863,ZoEkMkdmnSADJQm,0
12.910591069036316,77.71836703592169,jqmaArBwDxSAhGS,0
12.92150934202737,77.45585739606358,MOESsfQWFxELZCE,0
12.924823268681251,77.61713622125123,YQzsmFdVkFjZbU,1
12.924612559961144,77.61694440563363,YQzsmFdVkkFjZbU,1
13.092706041209304,77.62910887114464,UbgDvKUHzRxiyTq,0
12.979421188358424,77.7076951913556,TCXjnNpgoqlowkP,0
12.904653786961056,77.48833320612918,IQVseKMSAjddGhO,0
12.891276205012945,77.52945916736772,inCrzStkJhIHruZW,1
12.891283296529656,77.52901057172971,inCrzStkJhIHruZ,1
13.072256320463248,77.6610249023718,bYMFRKTOMazfyk,1
13.072240106303129,77.66170721601408,bYgMFRKTOMazfyk,1
12.86459938105024,77.72133860880453,yFtzJtTqErkjHmY,0
13.089163480857849,77.53441521794605,vDiOfcgKDYtdmZt,0
13.02136139540184,77.50920474899121,LVhpKYAnGTgckEA,0
12.985597734676912,77.60037390802576,FhjIijjHepfralL,0
13.020817834603475,77.47204044638833,gaBwUDjefoAIhZk,0
13.076896178772795,77.74275804239659,IOkVCJeKWkuYZDw,0
13.086237301537237,77.50312465644672,FZUkqAuiDMUieX,1
13.085665188024974,77.50319989769787,FZUkqAuiDMUiIeX,1
12.989600839162108,77.55716696344915,EqQqAVnPPgfKUnL,0
13.077114699221312,77.55392082512995,YyDnmnQNgNLHbk,1
13.0763559134357,77.55329507208381,YyDnmnQNgNNLHbk,1
12.898494934432666,77.73615788197884,kOxEJAonBXBSqpe,0
12.91570875666308,77.69602333820866,MPkAbjnOmaLVtSAs,1
12.915538976714872,77.69536774255083,MPkAbjnOmaLVtSA,1
13.00624080234784,77.45555872679546,GuEtbKLpZbILYJh,0
12.912778663820315,77.7267700231178,UeWCxnGiQPTgtp,1
12.911846453957054,77.72631326573816,gUeWCxnGiQPTgtp,1
13.02153875407158,77.53953787826526,iToPPNBfTeqcHW,1
13.021119488166278,77.53864401317307,izToPPNBfTeqcHW,1
13.017533331881992,77.65319778689569,YeFzfIhiXuUFhk,1
13.017918137439215,77.65418008305215,YeFzfIhiXAuUFhk,1
12.911769716389577,77.52921860817989,EpEIpoAGWbmUQKT,0
13.080746316090362,77.61170651122325,bobAlHgiBzdHqpLi,1
13.080989419145611,77.61090851682596,bobAlHgiBzdHqpL,1
12.921302888446556,77.65770834778672,SFuHyAkxZIARBKd,0
12.918593012887635,77.53852115069884,puskAoncoYEpcQl,0
12.934750268873785,77.5722059110061,jFQyLSNyfUKfGL,1
12.935488679467792,77.57286926308555,jFQyLSNyfUKfaGL,1
12.86082967166634,77.63135856150171,PnDwuQhlFHyPjrQ,0
13.088459614739763,77.6653549327665,tddCxefHKvQiObq,0
12.86833848801458,77.61052235683353,eyhOnNyDqTGichH,0
13.074780846055232,77.5924063595695,HiGoGvomqAAxJi,1
13.074193366854836,77.59234101804455,HiGoGovomqAAxJi,1
13.068037720029317,77.53731284504599,qcJdJrIMDjIWdrl,0
13.008533760805472,77.66361901833727,ZYVBgessPydqwf,1
13.008460134060677,77.66413822724977,YZYVBgessPydqwf,1
12.90509538466787,77.50344503349753,zPxfQIfkdcnBbos,0
13.096186161622184,77.69617859139775,tgVydlPSQLtbGyn,0
13.03155757498717,77.45131142865445,wjRTsidHgNntNDP,0
13.091465294667229,77.56156161427523,CRsYrPVltoTQPjz,0
13.092836299358918,77.50275777991321,aFaLAECCOMEuLFE,0
12.945945346997656,77.63034905728232,lOwisEajYwUYzLk,0
12.863803590835982,77.46912550685396,RkqnqYVIjCeLzGG,0
13.090268084566532,77.5901098536122,nXuNerkaFVsUXeC,0
12.981140372865944,77.45793497992166,UCJxlviWMpSixwU,0
12.910110921313926,77.72526408122225,OkVfIncLSLDbbKs,0
12.90140134798296,77.72905876852757,jnebQffRVzSxSCm,0
12.941884837803933,77.71969678234382,uKKGdMpjgQUitw,1
12.941795176538498,77.7197873410895,uKKGdDMpjgQUitw,1
13.072436994438869,77.48884706414246,KLdRHJbVmkUzCy,1
13.072393985724856,77.4885398848589,KLdRHJbBVmkUzCy,1
13.080012554572871,77.54215810794153,kRchTuhYICvqzTc,0
12.872372393574697,77.5443233684254,HEUYZNhvgbdSvbSM,1
12.872320417956518,77.54445018215583,HEUYZNhvgbdSvbS,1
12.959376485275955,77.57319557800088,ujvuwIqLOTWpybS,0
12.917734684713194,77.66698094977208,plSViyKUdJXpuMT,0
12.993511955219354,77.50033363242599,phrVvUzQbBpsZrWm,1
12.992524838985895,77.50104984063324,phrVvUzQbBpsZrW,1
13.07097724270071,77.54727533257787,RGXTBEBpdztkwwl,0
12.885987592190416,77.59143186157296,GrSrWWUAFOFUrhO,0
12.874440366105798,77.53313297233501,uTZUxDjCemcHaEI,0
13.02830805240264,77.54252608254,oiWstFxbmBVpQcmN,1
13.028151391756492,77.54216165527444,oiWstFxbmBVpQcm,1
12.983840117327926,77.661026252635,wBZGMBlnbGIExvW,0
12.88623708351792,77.59241136219094,EZVfoaSfPpOWXJw,0
13.08872569468324,77.4849714250582,OJRXKAMNLpjIVSw,0
13.086119673930982,77.65609356270615,vQOoYBDedVUGKqN,0
12.912574352756858,77.53621886865405,JFFTvAMdtvmfosJ,0
13.023984246684742,77.68780851048724,KjbBIKwAEBwxSrm,0
12.900144976645388,77.46804682466981,lwjzUNAOnfmwTqC,0
13.048219137916966,77.6929705850171,PTFNqujYyLQvYvR,0
12.954411454606204,77.64633925330276,gXzVkoqhkpuiDN,1
12.955177725004775,77.64645652469443,FgXzVkoqhkpuiDN,1
13.045131227250112,77.63527603557367,aEbDtqzRJhUBuLQ,0
12.962772445090788,77.73568404199497,dlGYsCncTOIbUCWf,1
12.963406487870826,77.73601477038098,dlGYsCncTOIbUCW,1
13.064425626355458,77.71617091248704,vGhVLhFURUOJQAx,0
13.05405756423863,77.70366217136291,FXCiHOddxYJMcIS,0
12.974201103413709,77.58660602347378,RTmvDlvrxCMlqAO,0
13.002373990708625,77.4885329118076,UfMSLoJylZlAmiq,0
12.925979590573828,77.56832368413217,uHzrwGqQqYCBcZT,0
12.972650745910975,77.53251980071236,mELnBthNCaLGUe,1
12.972675820162095,77.5315563467282,mELynBthNCaLGUe,1
12.886753289096635,77.64313216685282,DDakknsDFgVcLrj,0
12.95009126988114,77.66792315435714,pwffBtDWJELaABj,0
13.03607370203978,77.51183362402769,xqQEEMDJbRDJOZX,0
13.010888114945846,77.70804816221131,oxBbryQhnsCpCwa,0
12.900602784175929,77.68939369077665,gKLYjtAegzHapmG,0
12.996291310049838,77.4818717332124,qsqWuFUAZvPfyrd,0
13.014703417504723,77.59817885514043,xjPawNtrFErNkqp,0
12.978579855265668,77.73806572749696,dZqaaNlIZHViPYx,0
12.902058846426131,77.57777710655718,FXdpAwsykdDWQwK,0
12.883901003329315,77.56378184322402,CzuYIOOmTVWRulX,0
13.091526092564676,77.53338773947198,OcKtYUIhEZfdJIuL,1
13.090961532549082,77.53413690965868,OcKtYUIhEZfdJIu,1
12.994464758686316,77.64659808766282,EfvoTvengDneMC,1
12.995014367702746,77.64667406885678,EfvoTvengDneMlC,1
12.960182658790837,77.60095401165259,plcnUcLSSpvJtLI,0
12.956077689466536,77.64276158104893,HlbSuVNjJuTzHmv,0
13.000337484946314,77.56367098156028,KBMIOFwoyKVixdd,0
13.020248189045942,77.63985050463934,rfDhyqTWnfAsKrk,0
13.03419869521691,77.47497864588118,uQdsMXvNMbjGLmN,0
12.932205194543531,77.62165545865328,kNHEfIhqcdUDXKN,0
12.996422471769815,77.65846127438274,tUQnamzbcnuMZkh,0
12.966510823366033,77.53979955293065,riBmWWfWxrqauzr,0
12.961087584109876,77.69436276748918,xOfoUDWJQRKFFppb,1
12.961013648575182,77.69532233883517,xOfoUDWJQRKFFpp,1
13.079941672339562,77.51776558035097,FOjEfvDZsKhmkTlR,1
13.079766230415276,77.5180890627327,FOjEfvDZsKhmkTl,1
13.06557852081268,77.6088591875612,vAKwvmsDFCspSLa,0
13.031251485317052,77.50590326403092,vORuDbKCUjhkARn,0
13.078256282912744,77.52324165184946,WRRehwuZCfQjtRk,0
13.028090380844668,77.52762584583942,TITddrRKOBWSQRB,0
12.88791759709806,77.44603776384498,wnFLrtiOtOZCtlN,0
12.931989442066303,77.69918244805126,ngjrVwvuvbmBcbW,0
12.865272955665048,77.44514797753321,okYcgPsHaFPjRkk,0
12.940441609342349,77.44999917723948,qhSPrVBqaODbQlr,0
12.905997402341756,77.59649730703354,WIHCtVyEBeiqHkx,0
13.080345383361704,77.7021430749343,CnuzDuVTsYnptVI,0
13.043026810995444,77.71846202171615,XeOwaYHQUWreQWI,0
13.076004759331262,77.51931501047868,LBRbIJmEooNXvWT,0
12.896252917159364,77.46367602841852,ezhgrvRgWodMhUI,0
13.027539104392066,77.51483783776443,qpPJSlQwpNQJOkz,0
12.94857638597822,77.57061895305958,OAHHiWqzjwouwSJ,0
12.940808840986929,77.51449733022243,yqfleuOeUwlZmaB,0
13.063285395506282,77.44897584860219,RLiNSrtMhmhogbNp,1
13.063893343802514,77.44945010605133,RLiNSrtMhmhogbN,1
13.044042658030731,77.63321823976302,KorFCOfAjgYvbA,1
13.043271438215363,77.63275869552756,KorFCOfAjgYjvbA,1
13.042406924735058,77.4811771768379,mbxkgnqPkfuDuSm,0
13.036976936089484,77.72865256175183,rWocaOpzdWlvnFs,0
13.066674567462035,77.66587774596061,RYagMaImRyhgBp,1
13.065979752789865,77.66514121817076,RYagMaImRyhgmBp,1
12.876183737171385,77.70350901238197,RcVkgBXVxUtItqv,0
12.967304298110696,77.45066041567075,kBDrulSAWpFBqzH,0
13.041648920025484,77.63085537462447,PJcKuCDlYTIsOBs,0
12.896928443080585,77.51120529645175,DivTzOebcLxMnzbw,1
12.896852266255197,77.51143340243038,DivTzOebcLxMnzb,1
12.901944679995594,77.52863614576692,qhCgUkLMhCKyrh,1
12.902901256604428,77.52888526089075,qhCbgUkLMhCKyrh,1
12.95136337844357,77.58114253058565,QqnkgidPmittaQD,0
13.093402152571477,77.53332638618123,hZdQBclZjSdpHyn,0
13.095215938194787,77.47579559432852,flqygxfxYkCExX,1
13.09493930828154,77.47566734557445,flqygxfxYkCExvX,1
12.901852789054145,77.69839304036303,BjzPttDSxgMUrcL,0
12.996760009407655,77.47025730689802,zrbNeFjMswOcQsa,0
12.875920699525052,77.47174524269357,fnUQgWXAvVgMkxU,0
12.906868858121069,77.49318171602178,zViYrbNGyaWnkIT,0
12.85409838808773,77.7250670958141,qLZZyWngimpGAFG,0
13.060748663248908,77.58589710094938,QiWUEqkDqKcpvJ,1
13.061078958611333,77.58610803613405,QiWUEqbkDqKcpvJ,1
12.990834618015269,77.48489663910827,YLOiNMkDiixRdtb,0
13.019882391702732,77.60973275543192,MwRkeyZJPyIEKrJ,0
12.999056630347832,77.512630647073,urpEUjFxPCabEs,1
12.999860068300771,77.51319174081048,urpEUjFxPCabEvs,1
13.06797739367177,77.46907759282725,AUmixhyBNmWDzXD,0
12.853171583344432,77.66377240720392,VxIQEBOpZZYeSES,0
13.01295293782817,77.54167649571812,FcUGuCEXiQsWuZb,0
12.947023475055312,77.5418531708894,iliTOhiWWjJUHvp,0
13.019848139373398,77.68711790849724,HrKaRudfipajChh,0
12.883617209268442,77.48257473045007,ccnMrBIfsjbcGFW,0
13.088660861097258,77.71598219673837,FHUJCnUZuEBOIJx,0
13.0245937347511,77.5477680218099,YdtNmuaZMgzOYGT,0
12.877467840362236,77.62420732498218,rTJTjJLdjlUrgYJ,0
13.09336502707892,77.55435614860525,DpzWspgkbRIWxCAW,1
13.093203661247015,77.55360657623278,DpzWspgkbRIWxCA,1
12.860852557009174,77.6257505499998,eWsDSSenXjpWbvD,0
12.975331894316955,77.57998186943725,DhYAYaiNRddBtI,1
12.974668498376271,77.58001520106545,DhYAYaitNRddBtI,1
13.062319074077756,77.61816233720032,QuVHgggjtFmCynd,0
12.950887244147188,77.53507481612137,RwVejMVSHcfBeiQ,0
12.927487861644082,77.47604030430158,nBaUTZAYmEKmVJC,0
13.078049502496263,77.52546244647341,gDQnrQsYbQLyQru,0
13.063521741929922,77.48416455888145,TMhXOzBEIMGiSXF,0
13.06195570763222,77.67737800810785,FCIJEmEjzCpfkaSu,1
13.062421863008112,77.67655648965392,FCIJEmEjzCpfkaS,1
13.079947947914992,77.49259330930819,pydtJnzWatSTCjp,0
12.967256193451233,77.6977985619001,NpOwAlWpOANcbyb,0
12.867873221236689,77.46990460094909,fCLVGTwQWqOtAxx,0
12.957067729055147,77.47089895946667,FqyPFvTMAoGaQf,1
12.957548237875116,77.47057648523156,FqyPFvTMAoGaQfe,1
12.969240366000305,77.73420791309563,ZeLpfpRUmfNRPoi,0
13.054237060377996,77.54077802340558,yNnoiTmnTPkApZs,0
13.094159599250744,77.73453382292041,AQnUKtCHkbkhmfz,0
12.94356659675557,77.66058349336019,DSZfkCyxfOGBLvW,0
12.862466072864017,77.55013449083023,toCoOFODdmbHgfc,0
12.94694842735018,77.44984415492381,GkvhVVQOhHAWOYI,0
13.061956644324306,77.59889626418727,JAgUUKvOeFAIwkL,0
12.870746033571224,77.72213418000469,vMAkTaNyHJYNGH,1
12.869964841704086,77.7230912972445,vMAkTaNyHJYNGHC,1
12.930687067906556,77.5088952271651,zQDEiRPPYHPLkCF,0
13.035903583140607,77.71012974855256,HxJLFSQVRESahX,1
13.035409787578333,77.71105495985886,HxJLFSQVRESgahX,1
12.855535969931744,77.51418371295922,QRdSjPEcodYZOSA,0
12.870546475860277,77.54738780166254,ePBjaDUuGtuymix,0
12.995674163579396,77.59376400037469,VrfRpuzBUMDxjnup,1
12.99588543769757,77.59440726788323,VrfRpuzBUMDxjnu,1
13.021314976138989,77.53577013468826,HdsBGVIyzmyihid,0
13.015933447505388,77.62799467817078,pZcqIDthfrTpuMt,0
13.007480941056537,77.67148347202631,JrYsUgGRlzTsFe,1
13.008021904528904,77.67170393913013,JrYsUgGRlzTsFce,1
12.874979293975446,77.66783600030254,QIyctAitfynjKqa,0
12.868221071916713,77.58416432645335,LOVXZvPunnsecxB,0
12.880396291113028,77.45121743495274,DcAaqVlHyDEuCKs,0
12.85591430238011,77.71039881359036,OQkvUvgkwFPXvhK,0
13.093770347867649,77.50593097170166,eiqECNBhHmLHJcM,0
12.948638283550062,77.46252111466987,riyhEsRnFpJpVTb,0
12.911759560963208,77.45624251243045,jtkFucyInjewkKF,0
13.01791122912842,77.61585558774735,QVACCtccNXqVwNr,0
12.881321635070416,77.70880817173034,hQemnWszjIjnIgO,0
13.055495301575062,77.6106344366093,rqWJqwaVxtmPPvC,0
12.916263290391162,77.72086868101947,RYdwfHZlXTMLBpu,0
13.082825277820712,77.70338029093793,BwwVdvPCAvhBcqX,0
12.897034443340855,77.48458598545194,KqxWWVadVBWNzOh,0
13.095377759570995,77.52568780305556,WDBXDiGNkfGQDJG,0
13.066379565761697,77.60393903156255,EjlmwpMIQNBUuuD,0
12.96074605675284,77.58380328585513,txDIoThfwSkilAe,0
12.99526078715054,77.53836273885835,HhwoXuhbFEDXuZ,1
12.99517508489142,77.53857617814393,HhwoXuJhbFEDXuZ,1
12.885940122611084,77.47452673674854,hyiTqGdshNmmqOX,0
12.888287084414948,77.7260082201962,FOOwqeEnfLGROlX,0
13.008885657806378,77.54629339352971,ehmhaOaBKynlevE,0
12.867388409242098,77.6315959761682,NuTTnVbCnAFtkQ,1
12.86677553035464,77.63231212551842,NuTTnVbCsnAFtkQ,1
13.084768949150924,77.46654351077206,kEWaFsCFdmlkkmf,0
12.863146803204929,77.64140005690054,hoRurjUtRSFqVqH,0
12.894254751774112,77.50131758180034,ckGdVLRrGSKEkCr,0
12.943022080936917,77.45695599051528,SLBxdnPXZhVVbc,1
12.942079549704088,77.45619683307568,SLBxdnPXZhCVVbc,1
12.859610695224015,77.67429463794004,QQwiMBOsXKjKkD,1
12.858662632806102,77.67339576992164,QQwiMBOsXKjKkDR,1
13.028452798344578,77.73163620832652,KPNszYLaOUtlfDW,0
12.887526074373737,77.63141427060351,OpjtOxeekjSGWME,0
12.888521714524977,77.54724393674952,fvKXyyJrqHiURP,1
12.889311956985456,77.54723408880979,fhvKXyyJrqHiURP,1
13.063930277102386,77.5355790905005,QfoPbXPXvBDQyje,0
12.917660158196009,77.52775863927067,LVlSBNxEERIFHbMa,1
12.916683591993335,77.52818599842746,LVlSBNxEERIFHbM,1
12.914483096367908,77.56266521562083,GjnJbQtfRFTZftvl,1
12.91465789276929,77.56214560286442,GjnJbQtfRFTZftv,1
12.9134499966782,77.49425564095128,pqxDWIePiDUCOpVT,1
12.913487579037568,77.49459993934184,pqxDWIePiDUCOpV,1
13.056880015136995,77.6021259374851,RAdodbtcopxMdhc,0
13.0172786447053,77.74043613313135,YDfrDaRrRjNDVXb,0
12.852908436306466,77.67624931999303,cxSMhTDnkikDYmB,0
13.052995157644348,77.64586014505738,sBekKTEtiVjJmwkK,1
13.053514960017758,77.64509554746418,sBekKTEtiVjJmwk,1
12.900079192112557,77.74021021144912,LzmCQYJbzjdynny,0
12.96243256799746,77.53432783805916,qGhHAimoGFrGUOu,0
13.082962200565095,77.55984612679788,mzyXaIDiahUBmlll,1
13.08359705599434,77.55903282446408,mzyXaIDiahUBmll,1
13.076183723234172,77.46145851208688,PQZGDqElFZjNYQE,0
13.02301250806919,77.5179264934555,puOQmLhHLiEOvB,1
13.022680920681143,77.51758777084792,jpuOQmLhHLiEOvB,1
12.969776324536449,77.50490134997185,qoiLyJBHIgAXOc,1
12.969820776953524,77.50550459202441,qoiVLyJBHIgAXOc,1
13.030698783040586,77.5251860863953,HmqofMelkAMeVZ,1
13.03125992834487,77.5258723139447,HmqofMelkAMeVVZ,1
12.9634338691086,77.47156011390348,XbhGTlkcGEJhXqB,0
13.05297242842624,77.59796092440791,VUUmoEigVovEGDt,0
12.907841974143064,77.53276297434002,amEMoWjVfqktnHF,0
12.881875851309378,77.65965715738675,MaphqzNHZkZerwg,0
12.921195092176728,77.55063664217268,CTzqBENdvuNxlNi,0
13.070185796203075,77.55014854117415,qjTnVtTxUoYoREKH,1
13.069653301674771,77.54966477696242,qjTnVtTxUoYoREK,1
13.013649115775346,77.51061338158722,HlSyHmksRgJpAOp,0
12.876706039324644,77.48142202112041,lUDSOlVnQFyLLnJ,0
13.039263757529978,77.63558529107847,qZcJaoNCkccwFU,1
13.039489858768896,77.63512626782111,qZcJaWoNCkccwFU,1
13.07089751239026,77.5787595633905,kewcosmbRTHHBCS,0
13.027626289132067,77.55944800282654,opYpQLMQgFVIzakR,1
13.026909076832307,77.5599178698305,opYpQLMQgFVIzak,1
12.90982230186449,77.44523921555727,nlBoAQmMrAdOyim,0
12.880358515413276,77.69888739611405,aYIIOZNqNtyvbJo,0
12.86222774796703,77.610403235519,XpaBaZBPWxTwlyd,0
12.96306183614274,77.58648940696605,srdxilrqHVUKLOO,0
12.87395544545026,77.59379577209491,RTEMZabMFvPYMnR,0
13.013896702358206,77.63215694540018,yiyLnTQVVsJhVbS,0
13.08854995371599,77.70692737879027,rKZaoYPyYqmScAc,0
12.971139298088309,77.57592352157613,JKPBIFgeyripHYW,0
13.082950483299843,77.52882039394554,eJcqbZhBcksxytf,0
12.876317834014325,77.5264960662646,caNSZpoqqkrLcmd,0
13.01995455179745,77.59448726319341,mWESAXnPmfyneRx,0
12.92812122910478,77.49229382417745,NKaTyQNjoRAszyG,0
12.91860492144434,77.59143186437421,kggGpPNiXIPDuqs,0
12.968373450448391,77.53820513056668,JxvnSpmsVoAJFF,1
12.968109465063971,77.53904928659495,JxmvnSpmsVoAJFF,1
12.937181004856129,77.66867282869529,iwLDxSUqeHQMbPc,0
12.981047609651414,77.70846955745724,aNXhldbfkuhEAiY,0
12.935193277979351,77.48953657658932,cATceyPXUpHYsMK,0
12.875022467980722,77.52545080727535,iYOQOntLdIiUJWwW,1
12.874325396181636,77.5262908811676,iYOQOntLdIiUJWw,1
12.954494024386385,77.58831543980116,SkZYKkUsNEzIWm,1
12.95489063925341,77.58775992721449,SkZYKkUesNEzIWm,1
12.884127831574112,77.46310344154976,eeKnmeTTcRvKIbZ,0
12.898079453335855,77.4838880487308,umhNiUbjXbBBBUn,0
13.078942867161414,77.58206643603079,OwBZhFTwHEfwLkU,0
12.974120367454445,77.68116826265826,xoEdnZUApqbEnAP,0
13.05054485784662,77.68695155813991,dGdWIMrVPnswAZPp,1
13.049900430849142,77.68646569364455,dGdWIMrVPnswAZP,1
12.915839965080629,77.63370275563237,sKElwdLVnLwjhZEh,1
12.916718300137974,77.63381620817631,sKElwdLVnLwjhZE,1
12.94809325700868,77.73842332758535,uKJSgCZfSmCxBwW,0
13.042911388783333,77.69743170821815,HwhJHRrPLnyiasR,0
12.93352570001866,77.69619617135538,QaPDKrhDoxMXILZ,0
13.01494697343566,77.50736766689651,UiCTxOPUOjKDzVSv,1
13.015815311157189,77.5064565813964,UiCTxOPUOjKDzVS,1
12.89648846608254,77.57555168586273,hLnBfqHPAJEpCVh,0
13.012203608456844,77.5859674457196,CzxesbMKSwUAcTO,0
12.921406660646756,77.5158675453152,MSxAtSIqkPqiEcb,0
12.874103760492408,77.69104626880211,OJwJHYKMIkrlUco,0
13.058631775055336,77.63539656240542,SWhmohQDzIXeGaX,0
12.93519559622998,77.5733828359181,GiZPUJwFzszBmxI,0
12.9053709013824,77.48309378391293,IytuRjvmrUlilCC,0
12.94168384868758,77.4784145832288,yjYvGBpjQeYtOtI,0
13.068019303253951,77.53191217647553,fqsyMInuQxDnyUt,0
12.951824291148933,77.70715730128732,rEibECARVGevGzo,0
12.988289906094227,77.48787863569225,HbfEsOaECdmcdsU,0
13.024531897555562,77.66613514789647,RSNgWdukaOnqhNI,0
12.862928528871144,77.51977338972041,AljOKMHcNDHLPPT,0
12.899886625711776,77.44717959254592,diyxuraMFIbQubL,0
12.941523613066405,77.45155166101104,KZOuWKDniFQPyYGN,1
12.942005489949864,77.45136624401472,KZOuWKDniFQPyYG,1
12.94233720582796,77.47907660843451,ZJrxkcjMcHsqaBH,0
12.85895701233096,77.67396635346466,DliYnoziYgRbMm,1
12.859472230122783,77.67395942288005,DliYnoziYTgRbMm,1
13.090869584462109,77.5373242716602,SEndJOAxuyEYlGik,1
13.091157685371856,77.53718908778134,SEndJOAxuyEYlGi,1
12.881821861723012,77.47168561626911,UswyRHeeYaRwPjR,0
12.886556929433434,77.56512637171772,lPdNkrwXcxueHGm,0
13.088977655102015,77.4615381806608,LYRpSqZaNeojwqr,0
12.90958777032096,77.61801624175709,nUZHDwNStxYzQRu,0
13.060722318683473,77.5233090242738,JPgslMgZSqSLIdY,0
13.060574863983623,77.58835575895068,fryPzVNafrjMFuq,0
13.026019229076118,77.71638355412193,RBTIJNOZgsRcAhe,0
12.97245002686163,77.66982681650346,EwlNaEFAdiSMJje,0
12.878346241296615,77.67102987648013,UBGnVhraXjyRTlR,0
12.91560595825021,77.6165691741362,DbFVdczFEopkSfD,0
12.878816800086543,77.71913278389493,zdMzGAUJNExgYJC,0
13.02774936510649,77.7060164001097,yFfWwKdQXlTtQDk,0
13.044500368203822,77.5938704159162,JjsFDeoQFFdVsZu,0
12.914216505909424,77.62819973152607,ythhpBuudzCMURc,0
13.096305740495149,77.68423578997513,ZrjgfHZsEwmxnhX,0
13.004215596311791,77.66020901381988,aIBdBmtMPPZRDAE,0
12.916218988613483,77.66754385117903,RdVjNqLLaWjSbtNd,1
12.916679531920462,77.66754685149168,RdVjNqLLaWjSbtN,1
12.941009786658087,77.47467715337534,ygpmDkQStSbghGX,0
12.981534015117552,77.71547406500122,IyFsCZdFdXivDng,0
12.959385412233551,77.59654895539593,rDzqEidMnAcCkkU,0
12.945737090241913,77.50693846976249,znmAfCFhToxyjRZ,0
12.966732446715817,77.53907914868871,XvaUqLUlLlsxlxc,0
12.882783979777576,77.48912685451123,KzIfvPTxurZZysCi,1
12.88192155926852,77.48948074725351,KzIfvPTxurZZysC,1
12.944469726759223,77.58233925889236,CHYfnHsXRAOeoAU,0
12.964731841632938,77.61081533700123,rObzulJNhfFPric,0
12.897271959468991,77.45852131221062,ggodkJXeCoMqgPh,0
12.94391415224903,77.45699585281979,MjeSyJGUguGuBfc,0
12.956704193714216,77.47596365023664,IGHYNOxjqaTzdMJ,0
12.978335764074185,77.45738468224981,XTTWDYoTgeyLIZL,0
12.956677018810922,77.70211039508187,mjQpnXNJEkrgjFj,0
13.033662665776715,77.6865224622835,JjxehSLQrTtpdTfL,1
13.033269777021284,77.68666332957568,JjxehSLQrTtpdTf,1
12.853558016708522,77.66038369359806,kxFfRCndxbkgRy,1
12.853649473284865,77.66079930279753,kxFfGRCndxbkgRy,1
12.959102085448682,77.47191431612048,VIFKtwKZJtVEbGK,0
12.860745470551766,77.6385163468909,VojyDDmVUACUpgn,0
13.012935653965982,77.61792260734282,XWhuUncPaQxFZJ,1
13.012127003201275,77.61696465653306,XWhuUncPaQDxFZJ,1
12.927272072784127,77.64493020641251,eGMxPXNRMgQrMvt,0
13.049808922139269,77.55039355792675,ihozRPxDPkcHLPx,0
12.954072492019428,77.56996961254016,ShcayepooKtuENXF,1
12.955016172298505,77.5706376341551,ShcayepooKtuENX,1
12.958023315022237,77.5705135875664,VbyvMtliYFNYdIu,0
12.855558640591404,77.5090166120401,ULUlaMQoAVELdxY,0
12.992761247584031,77.58585884010778,osoQUBueAWYyKBt,0
13.03974835759452,77.52923722415723,hlEGlIKTvkTMPZB,0
12.954625570568588,77.64403001159559,LXbgiidijXByDoE,0
12.89704037659124,77.64719660651254,phaSXRCBVGpJuiv,0
12.95240493384626,77.6857750291719,zJCCOqxTgTiQvuR,0
12.866123354793952,77.64652201138601,yDnETDTcakXPjR,1
12.865852808112011,77.64573567673995,yDnETDTFcakXPjR,1
13.02110412233086,77.6220115676078,EFrEJMUTPgLZPiN,0
13.080085912292208,77.52083916260007,HVHETwdOdxbPXgG,0
12.970295622901157,77.54817148173414,EqNWQDRDptWLbnJ,0
12.931265005615025,77.73187472817743,wIyHIUaxZOopVnH,0
13.080636420364316,77.44950759546116,SeIHjmtjrdTQwQp,0
12.946629372078643,77.5219735151097,hGrqaNBUKpPOBRJ,0
13.017379138526543,77.72986670476666,RgJPNhctVQZgKQRu,1
13.016911470339068,77.72928217597612,RgJPNhctVQZgKQR,1
12.879444787022155,77.50136190495107,NDbFQQAsqhGpmib,0
13.095178965578366,77.49612365222681,UnMgTkBXGfkvpNH,0
13.02854416288312,77.5729826490903,FCfWltFxdLDdRag,0
13.042630920144608,77.57253360406105,nwKVqqwsQQVNYNR,0
13.0789648456138,77.62176861408152,VQmPnIsbkhHxUPy,0
13.022814394941411,77.60900243653833,ejCQtcUWeEJYLr,1
13.021914086053098,77.60940242610195,ejCQEtcUWeEJYLr,1
12.94706072286353,77.56108034974804,uHuVMvkgWJtVEqj,0
12.962262810932137,77.71556764806192,AXWkbXeHbPnbhKu,0
12.870580122632314,77.71914519683885,nAamdEdSpFWdFxY,0
13.093580060352313,77.5865113532763,mdheLZBLEMVwIIl,0
12.956971259598314,77.5607717703111,NFxvzfwiPlqQEau,0
13.068517076742102,77.57518106418598,FCNnYdUHVLRabzC,0
12.97585394076756,77.60066017454625,QHLNFMdwGmqngch,0
12.928146506139804,77.45749444924809,EKMHSDtDRSPnOVc,0
12.979292115622895,77.68418771908391,iMADuooMKHZDxqp,0
12.88175437792141,77.73369344461564,HbqQDnwTiPrRglr,0
13.030519821586456,77.68020173982626,svsEGIuuNLiaqmi,0
13.096567380982506,77.6846553828127,muDAemNDMQYxggu,0
12.865073314391928,77.72587765395636,eqrszFwZnuGOfF,1
12.866006147878576,77.7268513096686,eqrszFwZnuGOfFB,1
12.986661592881594,77.71931878914877,hjnufjmKbWbGbof,0
12.905630442995934,77.73077087640463,iKYYqRWfxMXViyNm,1
12.90654206416963,77.73156885075352,iKYYqRWfxMXViyN,1
12.97083082762976,77.61357574501457,mFtxgZXtajvTJjS,0
12.88864257295462,77.69007009259606,RrXzTBmgutyGDUH,0
13.009956180299836,77.60285999489743,GrQxHGoaeqcKfbE,0
13.059353295416276,77.5218613530745,bAmxUvzUBXWGXW,1
13.059975739436076,77.52170744469275,bAmxUvqzUBXWGXW,1
12.899720341066123,77.53596577316016,oYqVheEoDJVyUwg,0
12.970368192147657,77.6786419332949,NzRuaibXbObIUYB,0
13.013313578758291,77.6642079734613,WDqJxetvRGSPKZP,0
12.854213454505665,77.45534638595673,oPxNNnywyMKCLWG,0
13.02095228856197,77.56433396441798,HIrtTeSlAOZiJL,1
13.021362865579306,77.56362039184643,HTIrtTeSlAOZiJL,1
13.042874787410424,77.51712395376664,ThdSSqxeJFOalhu,0
12.9279161105638,77.57544866217596,ttORBgRKUpOjLtS,0
12.941785150890238,77.71136086534273,SyzlOXcYytwGwLZ,0
13.048157231593107,77.6646615275127,ksBcxQKcIKDSqdmA,1
13.04766859647699,77.66514358991732,ksBcxQKcIKDSqdm,1
13.050423441476417,77.53023764458433,DZqAnNVJJPuLjtI,0
13.069608437987313,77.58326928632701,UDJoyonovlfYnkQ,0
13.07793335179716,77.55113310413898,SvxlBZreZYGtqbt,0
12.922010335297012,77.45081172929044,VJzpDixhoGkQGYb,0
12.938157866648474,77.47151423761845,RhirQVntjrtHtit,0
12.990608805832425,77.60836195677993,CLCEuNnxFWvungv,0
12.988369055868551,77.70916444747154,EpBWbHmFBtBGau,1
12.987609846427407,77.70825251218618,EpdBWbHmFBtBGau,1
13.095752653352076,77.67009541011103,TeRPyAvBeyITiAW,0
13.094846084563043,77.55757097957805,pHjIaIqedjOcRak,0
12.98953989609763,77.61962930256726,UijBxXWggulMOyO,0
12.862297248449716,77.73549547823492,bkWeKyNOozeUQR,1
12.862582687726023,77.73519455046313,bokWeKyNOozeUQR,1
13.017811476558627,77.63220469120151,eaDyeRODYMlofZC,0
12.912889705256358,77.67821538093145,vNShuZIOFLgOYae,0
13.017272185458426,77.60469069495159,YyqVyKROGocLaIM,0
13.04499112621422,77.64402305829012,MXQWgQLsnMVulPz,0
12.907779952390037,77.51473641753554,FlRTCIrwJoYSrig,0
12.961793424129407,77.59018710399396,WUIeAjwJIhHtnUh,0
12.934292483136815,77.66695954485556,AGwKThkWrVaJVIW,0
13.033235651173245,77.46534578445124,yntheIBrUHiqLkwN,1
13.033139261513796,77.46610633996264,yntheIBrUHiqLkw,1
13.06411001757569,77.51968839611621,btEuYCtKQECYMWz,0
12.980837311650683,77.65806270077212,PlrlygGPjUoPJyzU,1
12.98120675297451,77.65798929561883,PlrlygGPjUoPJyz,1
12.996072149607556,77.45307196886706,ppPQiFsvTYFGBsZ,0
12.8833868958301,77.60864059561966,YXPOkbQocsPMhxr,0
12.876755420166283,77.4974323539213,wWDkktpOHoagWsV,0
12.896859193783136,77.46798247501322,ZriRJkccaKgqOLU,0
12.855865125491007,77.58565400582536,ENJYIwWsohEBBrG,0
12.998678291404994,77.63725329368009,fkxjzqAhtELYrUi,0
13.076106201348445,77.70556970911007,pdjOITcorHYaAhK,0
12.902935219205212,77.72498437075939,qBqJesUcRGPMtEN,0
13.001595634887808,77.66069243722231,nigBgLBTLevQSod,0
13.01298169670359,77.51540266491281,QUTiWRTHJQVWDrV,0
12.98447251184245,77.45088515361533,zCjMilSBYsxOsBw,0
12.897089445146634,77.55586093534622,tVEMrZCrAvbjhbN,0
12.93695665932398,77.63855382793115,MstczrsmgYCcFQz,0
12.963442434677416,77.74131290354738,zAwvcEExXCRduoY,0
12.988462027971408,77.6470588029732,YifJwlaUYROtUwj,0
12.872956446323537,77.65014705913974,yBsBgzFlIykMNFN,0
12.988500652698818,77.70256983136925,JvtckJIQxIzVvHFD,1
12.98792766609647,77.70327581387565,JvtckJIQxIzVvHF,1
12.940733983086457,77.64911973551872,OQSobZIOGkPwWHY,0
13.010228112453047,77.69298217897035,viCdwELFiWmTcCoO,1
13.010587646710842,77.69290510698556,viCdwELFiWmTcCo,1
12.959475642431844,77.62396496220136,wxETtuqSHfxNXsM,0
12.890784775049738,77.58159122492698,LgZbvfQruXhouzb,0
13.02435650861478,77.65233558868822,nvnDykqdMeNdQnr,0
13.012750908195178,77.57654190061287,kpiJOtuklbWFrP,1
13.01368191106725,77.57602475445852,kVpiJOtuklbWFrP,1
12.945616014191216,77.49727640748428,ZecShDSqLfQpRce,0
12.976087488160545,77.67403741674363,WCyMdNPxHeywFY,1
12.975784905986178,77.67405660176033,yWCyMdNPxHeywFY,1
13.029628509695208,77.52195215303774,tuNKFdYnkHPmHYn,0
13.00594883394415,77.51914728425972,oLjzsQTspioseu,1
13.005154153732551,77.51971517244783,oLjzssQTspioseu,1
12.8761881312413,77.50079468172275,kzSnNLequNAZqhV,0
12.99622918359148,77.60668721666129,HVTCmTagejrRPAb,0
12.930812051430154,77.65834921643884,MLGufBIGOnYwjEk,0
12.969745479321404,77.46050284367277,kNOKOMRwJKHYcet,0
13.039750968714603,77.66831150480256,hVWDetAiBkWYUsL,0
13.03778208042268,77.45534403515657,gvGxfhRJBOxNdKv,0
13.023354903727164,77.70106232219808,DcvhJRBcaooBAur,0
12.872098281121856,77.5807748403055,wxyXaMgsVzkHktD,0
13.00341600321101,77.58650925596395,QNaKLpVCTubHDaI,0
13.08460696647743,77.69486567533797,yJzUjiovgwcozKRa,1
13.083857992848955,77.69402077878888,yJzUjiovgwcozKR,1
12.998281274206638,77.5809450555312,IQGUrRxAfuwRtik,0
12.87198951908332,77.48385965733816,DZNNNIxUyXLJsoE,0
13.087207203685251,77.45391904937713,nVGhbdoqQtyULlL,0
12.91065853948268,77.49098792628293,jlyftfafQOJNJrI,0
13.03861949818928,77.67991011682841,AAAUYpYhFgblIZH,0
12.936823347277524,77.55718557879638,DmoEGVGxnBJqzfLE,1
12.93757739266472,77.55724204430906,DmoEGVGxnBJqzfL,1
13.052024401107364,77.64161018951471,gZOALtyPHWNDREl,0
12.872410821525616,77.58128542098457,uzcAsTTLZuuKbDD,0
12.99196300139546,77.61573528375976,DcIgPwwIQXsJMMiV,1
12.991920627668106,77.6149647185306,DcIgPwwIQXsJMMi,1
13.048678642413034,77.61608953907643,McWixfcCkBuvwVe,0
12.863120925468523,77.69866510960895,vQKtYINpsLRmjoiw,1
12.862766865297584,77.69868038186048,vQKtYINpsLRmjoi,1
12.98695374039899,77.56235633873095,JdNCQXUodWcRnxs,0
12.978223895784328,77.55507003406976,AqGKZbHjmuwyQEJ,0
13.02053195104608,77.61624965747029,oPPCoXUBHGPssuh,0
12.96561214455506,77.6608208129065,AXcQHXhVMHxWXnN,0
12.891354796113031,77.71482671289185,GsfQOFJAwNmHBRDl,1
12.8919238615595,77.71483400686463,GsfQOFJAwNmHBRD,1
13.094058444324968,77.45811174102842,gSupDedMmWizQhc,0
13.02132199606362,77.52580396403125,DXiUDpSkZnpeRZx,0
12.953645276828253,77.69499917469035,QUOspJHsoxXotLC,0
13.0063420024758,77.73854866628537,nrNAKKGmxApcTXM,0
12.862169723150766,77.72478455833573,LIgJXYqLeYrhIxG,0
12.870338093225303,77.52963826632353,QfhtdcAzWmEjJIV,0
13.057570248580742,77.67468843561649,DyihmGBQHYvWUxt,0
13.026915137422092,77.53940994045121,TVbdZKcWkZrFQof,0
12.976736613347711,77.53580359211128,XQXaAOHZxBXwulP,0
12.957256058524326,77.61398070205564,cDLlnRziVSbgspT,0
13.015558554644365,77.61269657407195,wYEjEaLbQkVMarfU,1
13.016203719757842,77.61320070584875,wYEjEaLbQkVMarf,1
12.909058384159584,77.60225963500513,bdsoSrpXMhTFwp,1
12.909258941532936,77.60278778082221,bdsoSrpXMhTFwBp,1
12.921395899622958,77.45768597626608,XkkANYsdonngWNz,0
12.871673642377004,77.70862375644484,wOTxAusywakKyJF,0
13.063559320302458,77.69463774512867,QyMRkLclqDvThK,1
13.062686525217966,77.69531362610152,QoyMRkLclqDvThK,1
12.91149331664601,77.53198360664291,KnSFawfjgClVeWt,0
13.066064660805177,77.60253963832305,rBHIZqhxmULhmsq,0
12.997185051994256,77.5329398231996,SqvunqmgBoNmPHA,0
12.9732073456624,77.52887490082257,bMAOlaFbDgFtKyC,0
13.076402764228304,77.6105013431858,kssMnxzknoUrnFnY,1
13.07697524948042,77.61093079847831,kssMnxzknoUrnFn,1
12.905882905575826,77.69291068581991,gwxNKRBtYiYPPKet,1
12.906238460002596,77.69204221611335,gwxNKRBtYiYPPKe,1
13.021141662754568,77.49766797790464,OIMxfdoOxTKoAOU,0
13.016458992055306,77.6372547694874,pbJQqfwrzhUQszS,0
13.038599864786578,77.54677772480805,edZYiIwHqiFXgKd,0
12.860847905067228,77.51248407584862,MHzkZrygrkUanpx,0
13.068604708317576,77.7379976755853,roZzdhxHnyBpObC,0
13.031223400284464,77.50029907317885,OTHGBvcBHYHABbo,0
13.042992783829757,77.56603278632969,RGJbqIHqCxArLnh,0
13.061020119102356,77.59125052304044,KJWRAjPsDTDQBQn,0
12.971970880829607,77.65661439856214,miAHxxGeEHXAqiX,0
12.999854674056108,77.5149149733259,jclobTUSDXATxYD,0
13.06621901037843,77.47241307809941,QNUJWfGaiYOsuXO,0
13.07561310315485,77.46336440009854,IMQRcIrlILIlPIM,0
12.86589818124196,77.68404451449229,kYxcnFVAcWFxRCF,0
13.023374584453087,77.52875788231496,qurOYrhIpbCIHIM,0
12.902953631127527,77.53103511182196,OHzmvHVqvgUUDCk,0
12.939168468455314,77.6141604833213,PrOATJxmYiNVgEw,0
13.015141110825043,77.58188139628793,ZOYyEKDRqhUXKKN,0
13.055369789716694,77.6520131230271,uIRZmQEpyUSyer,1
13.055844890805156,77.65168234416197,VuIRZmQEpyUSyer,1
12.912010231045803,77.61843588196413,OeYGKpmhMWVfiYj,0
13.08888614929555,77.72690168867227,DQCGKtjZvLyhOR,1
13.088513320853169,77.72676781066322,DQCGKtjZvcLyhOR,1
12.926600024448373,77.56617768308419,mpaMejIvdZtPsyj,0
12.936550632367108,77.4943724138761,CgwiyFeVZzDJQPX,0
13.094571323239018,77.5448928088163,YrqSIdVwMkxzvoG,0
12.97228583392031,77.51123832436494,kNRMrIyvyoGSpzel,1
12.97147314500736,77.5102719905642,kNRMrIyvyoGSpze,1
12.909462234736,77.47359899667583,KTSArvsIyTRCYrC,0
12.907189750831211,77.4828872857319,ZacICCkUHEsTumv,0
12.9953236434491,77.712092301853,aHiJYFRzOoIlPKV,0
13.072506416635177,77.49259250188145,eMhOdUupJQWEPac,0
12.947299275779033,77.632600677427,GVPjqIMUJlFUvJN,0
12.988922193271865,77.64868033131313,afAWcqVjjplgSL,1
12.98880106129512,77.64926212239095,GafAWcqVjjplgSL,1
12.955728277492282,77.48962175478746,ZmRBuAXBpYunqOG,0
12.85655166818932,77.74282633903077,dneOgmXoMmEQxKM,0
12.946544953867882,77.56624821034328,XqgnzIEOeYGXKRP,0
12.876367672633393,77.65121536575738,JWHaYtEASiqlyIq,0
12.964459786880358,77.50466571880924,AExZxrhKXnQnZKc,0
13.080807369663804,77.59986131463947,wOJMIwLaUYvaQQqp,1
13.080842426280157,77.59915169981578,wOJMIwLaUYvaQQq,1
13.04627118427492,77.51107388224123,TKPUrScBxcxduzn,0
12.862378882902176,77.64272737247443,bDjLGUIHPxrVvsf,0
12.88381213145568,77.46156093416595,jZexcTgOpijudUD,0
12.922840186426171,77.71003739973396,qjBuXYzYVRywuGP,0
13.017374551366492,77.61461939550273,cTsxGpTpzSDHesQ,0
12.879945887634884,77.65397439938016,zPzteoQjRjtaQlq,0
12.96597905921981,77.61429372461731,HcgEIwwxQvUGZva,0
12.90912524655707,77.64608513158916,MXsoMLRlegeewe,1
12.910098399344866,77.64612949186012,MXnsoMLRlegeewe,1
13.078221115187407,77.54243458265587,nFoksQuGPHZvdxX,0
13.084054233534502,77.67171302913343,tUDnwztTtXPqGrh,0
12.965669957063453,77.70251953197234,ycyjdwDUGPrsEBz,0
12.886321659149376,77.45364446252836,ypnwHxroILiAPco,0
12.881207155102786,77.47269333798862,iShbfpbjiYLcYae,0
13.045103137978156,77.69382866040681,cOpwumIMGRwqmHG,0
12.99620032573564,77.63136011539127,AgaeiOFdIMPztdH,0
12.9840116858557,77.58672245057647,dhAuMBloDWSawYo,0
12.863329275190578,77.4925258989111,EnPYmWPdsRmINNP,0
12.999584899330074,77.7005428146638,fqxEXyfmluNitgA,0
13.059679625493596,77.5991895711519,QsQOOafZcHxOuGV,0
12.990571529963807,77.48525386858681,UEoORMtXuRsupyU,0
13.045472888099876,77.58421423454945,nmUPFWDdsYjldVx,0
13.08250055404067,77.70901082126326,OFwJIEVwsYekdNg,0
12.860169823338406,77.53253697734343,SfIlanuLpupWfNg,0
13.054270941359912,77.59724890397224,UbcyChqIpzYwwfe,0
12.930233488918123,77.56459696881036,ASqOhkMPLitAfiNZ,1
12.930941011503537,77.56540653420383,ASqOhkMPLitAfiN,1
12.897713449614669,77.47551183012699,ZKhVCAoBUtjfXMZ,0
12.904239109121749,77.47542964073253,fPNbNJqCoKwUJPG,0
12.910915769031211,77.52711724177506,ELFMjDZKiKDkPb,1
12.910840403138586,77.52786972078783,ELFMjDZKiiKDkPb,1
12.905160558064898,77.71401084427899,aqNNlWoCodCLuYdW,1
12.906143323987928,77.71410430790641,aqNNlWoCodCLuYd,1
13.07701057472657,77.64683513972778,NUOUxsdxnKckZNK,0
12.862997560188484,77.72908301725782,gwlzhLuSUdHUApc,0
12.962527400906826,77.55101548805393,xjYMjBoVaxBsjRG,0
13.004374466954554,77.59086740657946,NXPBirHfeoCEDxk,0
13.050518235262931,77.52870408044659,qwHStrMNKlQHpYC,0
12.952678930310425,77.61122068444125,dwwTYKTahBmKfCo,0
13.022396442841243,77.44946305574359,YvBufbbHmPamKgn,0
12.922437053719188,77.64644308489359,fbnLnTcXReshLIf,0
12.855337376879536,77.66548025820724,KmREioufhSbhARF,0
12.863429056378358,77.47847829622076,IfveIjwrvoMpcVJ,0
12.934002545056964,77.69909740384318,JmwTUNKLAlhwgSW,0
13.06358795577067,77.53847768790826,FHymYihWnHrKEln,0
13.089958061857082,77.51114129717854,xsEHjyAMSLanbYgQ,1
13.089424549689848,77.51183355679504,xsEHjyAMSLanbYg,1
12.950366755722465,77.57141399756162,LEMMgebFNIaWFjb,0
13.02942164598863,77.63037832110896,TxcZlnbxxmqHCAO,0
12.854178749083156,77.70449909563578,iHBlwoLYfJsgDLZT,1
12.854149580624243,77.70362795653642,iHBlwoLYfJsgDLZ,1
13.03617227400954,77.452306689838,ffKKHOAqtWoeSas,0
12.996768824546452,77.70696259102989,iqHWzbFUVbqwhG,1
12.996433924125943,77.70747112680547,iqHWzbFUVbqwUhG,1
12.927093922578663,77.52944314065694,cerUIhDWMuarFvh,0
12.85345818202495,77.63487021933845,EcDtskYbPKQGwSS,0
12.93654673206252,77.69050414999316,fsdXGxHnHLzUnN,1
12.937292172597155,77.69067535403254,fsdXGxHnHLzUgnN,1
12.97622500152043,77.59240714539793,NOupxuVdEYOlBYr,0
13.0201176958137,77.7011570975332,BnwZshlHdZAVOhm,0
13.038009856021208,77.44858646584969,bDlQrBBlvBsRsF,1
13.037850627225406,77.448155970344,bDlQrBBlvBsnRsF,1
13.011477712609882,77.45596858426808,OcZnAwYDMvcwqrg,0
12.954673558695523,77.59838803501388,uUhVQIerPWFWCDa,0
12.99022292401498,77.50866310492066,OrauQVCaMeaXaFu,0
12.922515843787274,77.65282689979159,IwNOFBTdewRlFKQ,0
13.027272768057053,77.47216409069716,QmFrnmsOeVrjUG,1
13.02694877430667,77.471214455221,QmFrnmsOeVrjhUG,1
12.868225193845667,77.70579246298851,NlfaFzCEuwqtNxc,0
13.02420671727728,77.61392037470657,YSleSlFveyqLteK,0
12.88413275685138,77.50501983397635,kPgZYkYYEtLxJGw,0
12.92540880606362,77.61108368998717,LZvLsWyjhUQDTWf,0
13.095354528191294,77.55682482788535,lTJSohlBZgTLTip,0
12.93424849555972,77.51411470123928,WysAaTOvwKNpXQV,0
12.980572746174138,77.6938775305894,dtlHxjIDZmWohg,1
12.98005291163789,77.69435644919821,dtlHxjIDZmWVohg,1
12.97521786324549,77.60457045314585,vIbUEYCNwDSXBAV,0
12.856550692066438,77.55894842028898,qfXFAMKwzalfElv,0
12.862271949558748,77.49458436679777,xvFncfBRVbnkNeo,0
12.883536054614597,77.54575571250405,JmkUYtkehOIZKfJ,0
12.906183098136449,77.54243174918925,BQaClRPIzWYDtRH,0
13.096290793741897,77.61798531123915,DANxTTervUHetjO,0
13.018206943191954,77.46707361927926,YGNZRcvhoeheLLL,0
13.038926624685333,77.56892833806353,CcLuxvRxLXozqss,0
12.96846448662427,77.48094713243772,ArLDEMFbJmrTjm,1
12.96911887860233,77.4818224483452,ArLDEMFbJmHrTjm,1
12.949280727638037,77.63372874408053,dlavnQGrbTgZiOd,0
12.914787505663812,77.60658602767019,ImmgnHZrZBUFQYA,0
12.86702539976669,77.72320005891802,RPcEVwnwADYJChe,0
12.85993148942445,77.50144739228519,YzIiRtbmwpkHgLh,0
12.90705957680014,77.73744587072952,lpaZryPPqOdruHw,0
12.975005023243206,77.4539852997639,obbZBObJJvNyfh,1
12.975360982634395,77.45495111396963,obbZBjObJJvNyfh,1
12.975935611541804,77.6401188610641,CohmRHmjBedgvKH,0
13.047768978421251,77.62167206991978,JFegCSRRKulHzJz,0
12.984945725223492,77.69767843472636,ebNBRJEhQPKIAXe,0
12.85259872893016,77.72102113202628,UknOBoSKPfoHvFqW,1
12.852620035866275,77.72182778321957,UknOBoSKPfoHvFq,1
13.094265681930978,77.74184134599516,wLOHSUaYbvJjTO,1
13.094261729179976,77.7424881862906,wLOHSUaYbvRJjTO,1
13.013400540645812,77.71451036031608,ZLjXVZSgnZNdQcA,0
13.083157355228437,77.46248282065385,moJSTSGlxPBnxcQ,0
12.962848896982416,77.55670293325417,juYnUwSLfBBirud,0
13.012490942338443,77.60515365712926,YKepisVUNrEDUXd,0
13.000438405258764,77.53360126139933,CslPOJWyhUbIodw,0
12.863646860491649,77.53285168507486,MKBxmwiWDxUDguE,0
13.05305155583346,77.46272026852813,YIGsqVnCBHOfaqg,0
12.853998354602872,77.53091410349138,nDypwDLoKfdFQXs,0
13.045948015154334,77.69269222893179,yqiCLLRwflBLVeB,0
12.891469685949046,77.52642376155062,SEUxjsUZobCMCyd,0
12.979709031582544,77.73799963458835,XAACkkuanRMwSih,0
12.856995684312585,77.70412564288233,UgZnLfBiDPBVgUL,0
12.861914517415132,77.72794434305975,GiCBRFQCerjLfOA,0
12.86191332857242,77.55407437958877,ziDUDocpITgivoVX,1
12.861798410384017,77.55441761537814,ziDUDocpITgivoV,1
13.069305382691,77.60130839961917,udAWPeonbWxRqbL,0
12.876761444785991,77.73592420144634,gHgdweTaCxRSCKfv,1
12.876047468248233,77.73566202925383,gHgdweTaCxRSCKf,1
12.998841391374496,77.5473732656095,iGnHvKvSBWuzWK,1
12.998342184159752,77.54833954212313,iGnHvKvSBWuzWKI,1
12.99771025901301,77.66949710599981,batPEWlSDiRvIG,1
12.997677712567366,77.66976870956817,batPWEWlSDiRvIG,1
12.924398170671488,77.54404776459643,YKadHdLLKtNetb,1
12.924185446200523,77.54416152683984,YKadHdLrLKtNetb,1
13.074813600172153,77.68984799562946,YxTVsDtCeybUSjR,0
12.875144966051264,77.55784666689098,XCiPhZNkAZdKkHs,0
13.06136215804194,77.50956388907385,lhJcytbnFvSMze,1
13.062335330117437,77.5093839164304,lhJcytbnFvSMzGe,1
12.885283663716592,77.52795220934541,XqkoesKWflHuEvh,0
13.089641113393826,77.48521234437223,QNpJoCwcTVaPzJY,0
12.863339295189784,77.59190203680052,rkCrtpwGJRCAEKH,0
12.96832257738099,77.51003113492756,nuxSTiAkTWrzCGJ,0
13.042146254842196,77.69052174337317,oOIwMMFriFmBcxa,0
12.962319623059583,77.67957977068004,gpoyunMNcuzHteJ,0
13.045499845448608,77.6713309273432,BwmBFTkEDpKgqnt,0
12.965192138916882,77.44615310144891,ojidCvRgtCDBccK,0
12.90588372741476,77.73696594163802,nOTGHnRgLIPwCCF,0
13.04709396778472,77.65056423485511,aclOxtHlEgHrluM,0
13.01028483149697,77.52011263552242,SSNArkBKlGuoIEs,0
13.042275258597302,77.60246437755377,lRrMADNGyOPGsss,0
12.856401548714109,77.66980264082673,zVMXEZuIxlnNCPS,0
12.89915064302456,77.73112726251546,nqqTphctyiRdZOp,0
12.981169944917982,77.57068618696668,nBLYWfmGYGotZPJ,0
12.937520327082671,77.48390633583396,BgUWlkGuRFXrecj,0
13.056687519247914,77.45811724138619,xmgkvJmejHWvhki,0
12.969000828678812,77.647918362873,EnbhzMSeujAyRnp,0
12.985771071140142,77.5300666425043,dTFMsIeRtZYnFsZr,1
12.98571649565212,77.53075788836361,dTFMsIeRtZYnFsZ,1
13.00526448034768,77.55063354187335,imJnOtQGJwIhLul,0
13.08329343907016,77.66699381006684,fDAqCVvndgAQSSa,0
13.030211910439338,77.62198121905791,BJTJkloVdusxAIE,0
12.931700968320085,77.72100825959399,efRPuPtVdNMzNDV,0
13.052618722149788,77.69844312014926,DWdIKYFCYWmcdNk,0
13.015836160928815,77.70275858273415,EIdwhCdpPhRQvGN,0
12.980262539890932,77.61655516559212,DeqFGsqRTtZfGKks,1
12.979876978277728,77.61714682507359,DeqFGsqRTtZfGKk,1
13.031866107431458,77.67206674963637,UrJoOPhvhAPJQoX,0
12.95748575899766,77.56441876149508,dgbyZIbvxDhIuPd,0
12.881782489674084,77.72240223065045,WWffmRACpqejDB,1
12.881498666706564,77.72207059755048,WgWffmRACpqejDB,1
12.863212757282792,77.51279036821292,TpAUIvdWEgcgmmY,0
12.991102058359562,77.58822457993911,aPvjjtSIaeCpeUca,1
12.990788276251696,77.58789587835847,aPvjjtSIaeCpeUc,1
12.88828042552681,77.67875006032419,CQOfoFymeLCGZnd,0
13.030882027291629,77.65730190592927,XFxQiReplFHwMZU,0
12.975188302301657,77.6606440697806,eDWtFdnPCswrGHL,0
12.986628583588107,77.44774471759887,ITEsBPJKHKKlyJ,1
12.986163264256811,77.44793930155375,ITEjsBPJKHKKlyJ,1
12.91520833656364,77.73045267159357,yfvYHDNIVMAmzux,0
13.044354541858024,77.55973256390162,mgHzvcYFAIpMcfe,0
13.03518751854006,77.59351949471923,AQuzkymDHGlnILj,0
12.870414087962295,77.50391754051141,TqHMxSjIvJnNrwCm,1
12.870403674718562,77.50425168257274,TqHMxSjIvJnNrwC,1
13.027136915660073,77.50679891698583,hPTeikmBjGLFXss,0
12.90370331511708,77.54513559509878,sowtxoAvIXqSuQi,0
12.899113009535832,77.4969047104044,riIocuAgmOwZOVc,0
13.036735534966768,77.6496859171246,AksADJRiJgojcbn,0
13.086504391693389,77.73302154589328,LAZCczVOrTFPZRZ,0
12.898892694514409,77.5836036733601,xsJbQqwNdmmflZC,0
13.087129192532927,77.68719655183308,dQONPSgcoZcfLZC,0
12.8835993232691,77.68733685008642,WcDKfHvoHSJQgCd,0
13.020984729082375,77.55110593624475,CPbwfEqWavYPEyVN,1
13.020811930590996,77.55150382233273,CPbwfEqWavYPEyV,1
12.904156411447325,77.47363017533795,BHiTkjjNIzQyuLs,0
12.913610497258889,77.58826337072567,jslcvShKuQAOhcX,0
13.084289324170934,77.46385969508422,tqKcAjbbpZpdUWI,0
12.978343153292506,77.4863191077848,iJIaZfuuFuINPeg,0
12.925324530905057,77.71772399243898,IMHlEeGaeWFdnEU,0
13.09347642953041,77.62791620068548,mbixgZDIydaiHSE,0
13.07326213186557,77.54733897532162,XRynhhszYKIAFfO,0
13.058041753116536,77.69401353956015,iQhPnpwKeOPrSUF,0
13.088143548494866,77.7385921973803,zldBIvmqdoKsdYD,0
13.054619902571485,77.45783656332748,JlCHgwrvGRQEXQQ,0
13.057348749824971,77.7114536807634,lxWIuBUyMMsAlTH,0
12.887369146194857,77.57542804038506,fqNoNywQeKQGPub,0
12.934710063993016,77.71946409218515,vnUOYBRdPzziMAd,0
12.874067157999129,77.56334112449835,idXOqawoKYAUHMu,0
13.00917295378584,77.68516775428434,jtXjZAktrwgYQGL,0
13.083716426526482,77.71110426190472,qdfBuXFwkDUcFKY,0
12.856989706765436,77.5071640558995,ygonFBHxYlXqxyc,0
12.89929769709295,77.54192867177899,PmnfZFEdXZtucoC,0
12.87466351559506,77.67678530724993,TDFDAYSQtfQNGln,0
13.070674313294278,77.64519849917956,dqCUxJeYPoIzhSM,0
12.873881529541537,77.72224295659947,COYAuZNIkHAvQVS,0
13.056689815047877,77.72716487056113,tULCMNAxUWSzyac,0
13.03219390494923,77.6980920719704,RIZepOMGrytMHKfT,1
13.031999662454572,77.69713563711834,RIZepOMGrytMHKf,1
12.89617934414229,77.73596058494877,ufHBmVWJhiSKPxp,0
12.91755883994869,77.5021378505696,bMNOZJXRxnBfkgV,0
13.076802136288782,77.50030062344982,uqXoKFTmhyJfLef,0
13.093276107742229,77.45245661636558,wAYpOllljzulmxh,0
13.06596165621946,77.66887351511845,YxOXgnEoNtMcehm,0
12.989110671148635,77.53789110261613,DHlTcIzeFZcczXW,0
13.043358429950455,77.4567135969964,HnnyjsTcyiLHAHr,0
12.980078927208634,77.68741584172817,DUVxvqoCCAKINXM,0
12.993704367315912,77.58915650134335,nSUpoDsnDFQCDoir,1
12.993487297216666,77.58916874692927,nSUpoDsnDFQCDoi,1
12.976251488950242,77.52402076858338,IHcuRbBqWJzqQOW,0
12.903922175935811,77.46025509219012,yxGBmVQGfvwYTgT,0
13.079268615322114,77.67929604103121,gfdUqOagIbaPyTz,0
13.061134296087635,77.6969977841279,iyglTvNrPzpGSRL,0
12.905820672963245,77.48962346513645,RTfEQejHIVTkjnC,0
13.038509975065663,77.56976269371751,cqQtPjnohuSHjSW,0
12.95255739156137,77.56650002805841,DJlqkBEkmxyyAFK,0
12.873731077471628,77.6490982225885,OEzetCWBgjDKYPX,0
13.06199650437336,77.54679063957059,VsPTygXeRAPgbb,1
13.062834302239017,77.54702406566184,VsPTTygXeRAPgbb,1
13.01392495236255,77.59723184832127,HMOOCCKXskzSsx,1
13.013577017727506,77.59796156349698,HMOOCCtKXskzSsx,1
12.962333093920607,77.55015367402422,XhwdoYsfhAMzWLD,0
13.095542369083391,77.7295418598397,PlBpOaUZObQydmm,0
12.893314129970724,77.5335786901005,RpFzjLjdbWGzKAc,0
12.991117675721236,77.62748155578778,adarSApyGfAYyEC,0
13.095748545413796,77.4996370312245,UbxuGMaEmGfSsqK,0
12.972429011086495,77.69461978327568,EwGgcfzQWoDeXTW,0
12.971959240058109,77.73583749895924,MMwERXoAOiUDKzr,0
12.857099210115956,77.67135395159005,PsnNKTqSHFQLVaK,0
13.04249907462053,77.68564189191848,DcQmDbGCLFhHzvz,0
12.95978594096986,77.73461706726373,KaFRSlNeXGzGpDM,0
12.994964164393195,77.56356858899058,sEMEEqdBjzdCOLNT,1
12.995655601218798,77.56275734422238,sEMEEqdBjzdCOLN,1
13.018832730564212,77.46968634068337,CcyTsLVsFmHgMCn,0
13.002288679651778,77.63654823707955,zjTHOxKjFFGVvvl,0
13.08531192963716,77.68649037619504,ASDaiKDqNwVLUys,0
12.947034375479667,77.71029494941239,NENJmOmjEsQQoVN,0
12.975747983114696,77.64706222947478,AtwxdjhUvlmfwS,1
12.97552818945553,77.64735682239953,AtTwxdjhUvlmfwS,1
13.02341397458662,77.49726482443128,LxdfxytuoQLIyhX,0
13.041863765037345,77.64387261717373,VwhHlmYKDmnEXez,0
12.960910016520783,77.66504752622444,YgNmwqqldaCxGrtm,1
12.96170741826389,77.66586285454638,YgNmwqqldaCxGrt,1
13.015607602051771,77.69044763033655,aRoHmazYDxBqtET,0
13.032834715934388,77.46684013382722,AfcAhMJFwGuppAe,0
12.94625517440139,77.71049478337864,fRZAsrpTWllmqAA,0
12.860767240538234,77.64525025595407,IMBfdnafwEGzwyX,0
13.065411247986326,77.57698532184017,PAhWZBVmSKYfAdm,0
13.019389830754193,77.71967462391413,qKxgumYZJdGjufa,0
12.97784712657242,77.5495597070136,SkgsHJvfgrSsGYg,0
13.011584981056188,77.52169425872715,HTRJNIEMEaQARCt,0
13.082181151832428,77.65866895673832,GDHqsKikJDPZwe,1
13.081641035486458,77.65849536125563,GDHqsgKikJDPZwe,1
12.958027082401824,77.74212651099998,IkFngllvyzxoLUA,0
12.946738563867434,77.4591826515044,VoCxSpiYztZVzeu,0
13.001413937581052,77.498803586905,TPwdCRMnTGWFBBV,0
13.017521803296145,77.45319328234686,CfGJPYoDMmdVVia,0
13.088838283672397,77.70603321531193,RsTnUBWiOzIAMBpi,1
13.088472050144055,77.70599867227192,RsTnUBWiOzIAMBp,1
12.920345658825203,77.45154443328565,VHwhUuOfhPJuThm,0
12.856866663209766,77.70310412531767,tXjexnSvaqneYbw,0
12.971953270413174,77.44874885337526,MAgYtSLqWvrZIN,1
12.972659811195337,77.4496822334293,MAgYtSLhqWvrZIN,1
12.98526501227142,77.71935370513017,gHpLDcdfHAnfGUP,0
12.94014983678628,77.69693949844024,SbYjRdMvzXdLiYW,0
12.897878495627094,77.45728658458694,pMmwjdwaVRKmDUF,0
12.951215230825277,77.55882539816432,mqPWbcJNvlZGclw,0
13.094012989440111,77.6006783979301,XAiFecuFmGUiBl,1
13.094755454764702,77.60159482660629,XAiFecuFmeGUiBl,1
12.959166663658944,77.59751294926734,HaJbPuIsxPaQPyn,0
13.004877052081245,77.5751398227071,rlExGplxXsuMyHX,0
12.975427520197586,77.63662220248872,wJUxthsXwUtgXxL,0
12.96886523915208,77.61248168846828,EuMcjgJrZKGlPht,0
13.040722304266072,77.44658644557587,BNDYqsvdOALQbMa,0
13.029422611147748,77.50598894290306,tUoZsAfnUYUYCFO,0
13.043705067051953,77.4785066554243,gniStdymrjNTYJR,0
12.891629750587134,77.47526191757659,wSVyaaEmOvHzgizw,1
12.890804566492896,77.47586094008037,wSVyaaEmOvHzgiz,1
12.865930344877723,77.72462680524953,WnrTcYwNsiTUoYI,0
13.016128747800884,77.48786168098505,okFhfpjyEdAgIiK,0
12.890110560517902,77.63614646777026,UFEyjINFIHLLALcm,1
12.890424099543925,77.6353752424043,UFEyjINFIHLLALc,1
13.007719775686642,77.49538397656882,zcVXJPrUSuYUCiH,0
13.08540747308106,77.69657434325299,aIStmmlmthkHLJd,0
13.096845763568703,77.62920127998856,HjWsdeHoUnUWNnG,0
13.073413177732435,77.72577949240622,scrmsRxncsLIZFx,0
12.889257450053297,77.69830473398417,AdMcEgDxlxAuAOb,0
13.025594023413522,77.49764630920777,cQSpoLsUvNlLfcr,0
12.981187267005335,77.66859496051869,IEWGGGcCUHuxtoZ,0
12.94672931600569,77.56529386463609,UGPNOjNeNBmZaX,1
12.947337306762652,77.5660902150895,UGPNOjPNeNBmZaX,1
12.894561007494874,77.50582336952831,SpoJARtxXnuDUUb,0
13.028445571541154,77.45103663610021,oWarxqQjvtfCViP,0
12.899484761795147,77.45768356649258,MgTmVnMhXYYGKtv,0
12.997106760480715,77.6191979367798,KLFJrLXZNGvMiGW,0
12.873882952647776,77.7166359004003,LeTKLLASKfDcQLa,0
12.969847509752771,77.46022323430184,eMKlHdETHohleaN,0
13.00123199311336,77.46411997946565,mPDPLbMgKMiXCoF,0
13.050922810873075,77.50078753873288,QsfDvLYpRPbQbF,1
13.051578892970216,77.50024707112225,QstfDvLYpRPbQbF,1
13.042904252756111,77.62027415429169,JzRVeVsTdySPHRi,0
12.900955021658929,77.5446574737501,BGYjiMqRHvuUUqm,0
12.86318003551514,77.70819492100613,pQvakRcmZaWiQOG,0
12.86206066420174,77.61679377584045,pFZRtsEPPiGwdVe,0
12.98841818184387,77.48264403463155,bkByeiGDpFebLcV,0
12.868354743362447,77.71728113489824,VLbCetVpaWHQrH,1
12.867822969114163,77.7179755119051,VLbCetVpaWHQrHy,1
13.059495272137214,77.68213818456742,lgTyHhxQJHaNjou,0
12.982396135159046,77.65559335672596,xlOUePFomPuXngX,0
12.93874538233153,77.45153520005283,iOzSjNqvGjzmgfm,0
13.052709665527042,77.65278617858539,IzMBcXQEryBKQFP,0
12.941100872393193,77.49436208535084,dEwkBnlydmGxyJ,1
12.940779146224674,77.49436673611271,dMEwkBnlydmGxyJ,1
12.918784386682477,77.6262869102641,qGoGlQHbQqehwKB,0
13.05433766541929,77.47320199906486,TnumPktgHaZjVq,1
13.053817092999113,77.47401497377992,TnpumPktgHaZjVq,1
13.00499604367016,77.65068686484648,VvtpAnJNWfdqteH,0
13.050713873147448,77.59148606035485,bYNwapIzryquHTV,0
12.96316305478855,77.60394062339074,PdUSVQPPSQXZRyn,0
12.950290120594897,77.47229422489976,lktgfttfCySMxNH,0
12.919597433622672,77.50935548929459,NuZAxhBqhEUnOGF,0
13.00755537169358,77.54148020385759,btAXFwUPOGnxKzQ,0
13.03522995393809,77.73793080482508,zSkLCDpFUFnxKP,1
13.035422936942584,77.73705668875358,vzSkLCDpFUFnxKP,1
12.99577884900632,77.58939996048319,pkeKRqXRKmIfsLx,0
13.010607461211666,77.7376535534895,zGvhEHTjdDcyyB,1
13.011140211978738,77.73864154382831,zGvhEHTjdDcyYyB,1
13.019438101002429,77.63325610617837,KWUSRUJkAPquOSV,0
13.01978301360464,77.44690112971084,tDKVyRnJmcQfDMu,0
13.095901572357391,77.65773637854768,jqVzfhXNBXoRCgH,0
12.99847565744805,77.73455547895495,DZUhojBePAHVmBw,0
12.975067138916591,77.61584989862988,NlTJhSUFhXpFPUc,0
12.998843811549657,77.61150310216026,hiuYGTuxcINJqxI,0
12.939016036774763,77.5021767008282,gchdcRLBoCsnGiA,0
12.935503917494202,77.71327951966217,ClpyuMxxYWoyyS,1
12.93637711059717,77.71316970309987,ClpyuMxxYWoyxyS,1
12.884599330684512,77.72743307350308,StZVLtCUuHPleCo,0
12.935807943500528,77.52516616648522,BeONVlVfvJLadkRs,1
12.936452504205796,77.52515460804952,BeONVlVfvJLadkR,1
13.059080131706818,77.52602888806466,mYiLwdVmxBLyiiW,0
13.007051600075352,77.67357079055999,fiHsmFpLVDLEbsk,0
12.873584042992308,77.53442915890221,pkluWBKBtymOwqq,0
12.9830159782925,77.4711779841576,uYOrfyLSfiLlvEC,0
12.993982735789288,77.64602126127926,WDlclfvhzoApNn,1
12.992995041739023,77.64561132735112,SWDlclfvhzoApNn,1
12.879416145892971,77.60749333577668,hrkzRNxhWnmxFTOv,1
12.87973631474085,77.60688704486381,hrkzRNxhWnmxFTO,1
13.03062937771216,77.66600441185444,FYmrgVMLcjooNwiD,1
13.03144012786885,77.66585303964133,FYmrgVMLcjooNwi,1
12.958879472958449,77.58636663779677,ZSOzBMeXQXiQflC,0
12.926000066774018,77.56116594101947,bdEOfDIdcDxMLVi,0
13.015052828944702,77.58036730066279,cawddqtQyOfhVlxP,1
13.014328051917012,77.58096815317383,cawddqtQyOfhVlx,1
13.082548348431006,77.62354084199818,HmeidRXtHIKEzo,1
13.082208181948287,77.6228107498257,HMmeidRXtHIKEzo,1
13.055638771380776,77.46930199557461,XEEUEvrXAxhWFhE,0
13.085210739547044,77.7189630520696,bYhGMNsnYgyfnqF,0
12.94888570159948,77.47156702450334,entTbBqNUAuRHEe,0
13.049026293831483,77.69004011147781,GGTFqJkMUBxvevv,0
13.07265504216936,77.51329679714486,wCTehQiuwoFbRhi,0
12.895785069563518,77.67392849774953,stVdksUHeFRuyvc,0
12.883059803184402,77.51585406043851,WHrjxKyCqjnwJCrU,1
12.883643455539664,77.51624577288791,WHrjxKyCqjnwJCr,1
12.879907156001565,77.65116142639337,QGPMyHutAmrThfI,0
12.944915108575064,77.54022628192962,iEECptUHKooSFVo,0
12.979915574532845,77.64149705732392,aYKkRFKqDzsMsPz,0
12.96842326976192,77.58727074089398,oFmTsadJmrUVOFE,0
13.051960097345994,77.54764886077977,jkuFabMnQhDyqVH,0
13.08713645635027,77.63238601098212,yZBgAfPtbqsZOg,1
13.086243635767444,77.63155028098832,HyZBgAfPtbqsZOg,1
13.09091426772506,77.56520809139931,fWmssbKbcArJXqe,0
12.89996897410637,77.57167497580484,HizwZpHESYcAYSu,0
13.059643598503794,77.68297324948543,ASrXOQZcuqzmsor,0
12.99302531818676,77.5120788656177,JAUGjYbtJBuHLQZ,0
12.913697266831605,77.62516882756125,JRGZEYcRMAnoxfk,0
13.063848974100472,77.47957283477578,VBMmlIMmaSjTiQB,0
13.07017983172534,77.66068684429327,GQjrzupeBZbVeEM,0
12.942626909447778,77.61625133519125,SozhJPJOWcTJSCm,0
13.079867909620326,77.73208480922862,sgNpLRifcyLIyzX,0
12.87771269598162,77.5446716841015,dlNjPMefMrbEgpw,0
13.037432493736455,77.6459262474678,zPNVoYstzhGDVDm,0
13.071395685784976,77.5389523766207,KZNSrDApTzfosHn,0
12.894198277034477,77.61364567536356,HMqlgnCwVuTLfaS,0
13.053408771734524,77.73217462238638,rZWZlcYKlppxjWB,0
12.905906124741216,77.74138899158999,RBpuwZVGnUlihiF,0
12.88927218348054,77.6505248798259,BkiyLjsnYiGpjfr,0
12.98048835806313,77.54386975471405,NfkcLbbJEHmWmIQ,0
12.964391243472315,77.50414399402754,fGJDRyqvCmBgRat,0
12.981730804616411,77.50447972718771,qLggnCaBdAbLJzW,0
13.07153532327509,77.68528579930052,CPmIuVoWInYDiaz,0
12.945484617057142,77.63870658730983,biJvbjrDIXBeXkz,0
12.910265379543183,77.5301904313568,rVoZcNIDHSbOTMOL,1
12.911139548882996,77.53087236876985,rVoZcNIDHSbOTMO,1
12.949883995109102,77.54424560685453,bbcZbdWYubDoZRl,0
13.015970987206773,77.45567246952331,MaMdPayvoJuqLZjN,1
13.015868087238948,77.45473304141233,MaMdPayvoJuqLZj,1
12.908336094245666,77.6047926583817,pQqnVDeblClBDYZ,0
12.915789165222735,77.7136204238365,XXCuXgtwOseqrwu,0
12.915576800152367,77.55026695807796,xylUxaijryShWay,0
12.976258987041854,77.4961360945562,yfyFhCqyaNoOjYse,1
12.975886809918414,77.49640118661677,yfyFhCqyaNoOjYs,1
13.084311736906022,77.61034393196994,RlLlSWgMbzlmSDV,0
12.960486285732856,77.67928653208332,qaVVIvvoBEYQQPg,0
12.934578892280047,77.66355040845234,TNltGCTJOuGkSbu,0
13.070672523175231,77.67725365400065,EgKDCCcjbkkadhj,0
12.954358964963328,77.70219081087582,ZePvycwglqSARDf,0
13.020098768425344,77.66325557332101,oSXidBUojCecqpz,0
12.894287099505757,77.45202468239862,xQYMTLmgvjxDJp,1
12.893761569639103,77.45179787613638,xQYMTLmsgvjxDJp,1
13.026150202389784,77.64880878614481,HgDthKNiluWVZFe,0
12.99387198037044,77.73134102146581,jdQsSpXvUbzpagR,0
12.90721217459329,77.70513607301133,mgLkHimFeAetxIK,0
12.981197839500778,77.60915069502053,CJkMegAhQHKamD,1
12.980845241557928,77.61011348947314,CJkMegBAhQHKamD,1
13.0612114003763,77.73770822313784,WZmyXibqKwqhOX,1
13.062007214086558,77.73783184274465,WZmyXibqKLwqhOX,1
12.99208072414965,77.66244360065893,IusBkgienkyoOXg,0
13.046142870702193,77.48095501714519,slkRrttFdcvitpV,0
12.992170111183684,77.65651259175804,KrMIUNqlPFNOMMu,0
12.92748402363284,77.45757572993384,pzGmYcBAFHLIJgcP,1
12.927720885070704,77.45804357614378,pzGmYcBAFHLIJgc,1
12.897921531619732,77.6510484499321,WYgyeRcdOlkHMLh,0
13.039948891518144,77.67032155151976,tPzZoptBZtflBzx,0
12.925276533812776,77.54502328526733,ESTIuQnNBLszshJ,0
12.911382197185624,77.65021856808094,dhCFBbaRCzznXRy,0
12.856071950700096,77.61761573316609,zEsplIwzQSvxLTj,0
13.005878149748687,77.44781159864371,FiCjqcJmFsPCKnC,0
13.05525825151655,77.58755580804979,sBjvdorHMTJRXc,1
13.05454609338755,77.58659364740352,sBjvdorHMTJRXcF,1
12.951128426330294,77.73591877814836,yZOjAWHlYyBVwa,1
12.950143926247089,77.73545303165163,wyZOjAWHlYyBVwa,1
12.9046066900759,77.67939519083123,fbUArVTSWEfTKUk,0
13.08554457448398,77.54448496620716,ugvedrziKaQKtRf,0
12.933363368551488,77.6397149949279,zijDLbtFHHcENMX,0
12.924091649934764,77.70526493655346,UNQrUHEwYLlXroR,0
12.862285909151328,77.45322997476762,KVmdHEcaKRCHOBq,0
12.996879777384557,77.73193206376509,ezKAwEsHdNjMSiL,0
13.076892977219632,77.65905844375763,JKCjLXHQpfKTgVl,0
12.950232130044002,77.54478667986308,NexRTMIeogtqmsE,0
12.95972236135941,77.49899392689537,mKIRblQwjCJzxur,0
12.97692522334169,77.65738927624433,kTWdDBIKWokghlh,0
12.920173262989454,77.56709438070413,KzIZjRqExodOLUqO,1
12.921138779042684,77.56648966543068,KzIZjRqExodOLUq,1
12.868963955267551,77.53380897614159,BMahUqvVwTWUWKzh,1
12.868325984670546,77.53339114376693,BMahUqvVwTWUWKz,1
12.88848349258783,77.6160593906625,dyQvAsHeNyQJIJR,0
13.021349927416862,77.4456621462891,lpAqwlrkOFzBHld,0
12.95921924227278,77.71314938506264,dGVBJsmclXiGMEu,0
12.96947982859502,77.6068718962641,rKesaEKNotkyKGo,0
12.985430883764998,77.59465776059068,ernxdXIebhuJZFr,0
12.882296007868828,77.70621596419136,lMeplmGULpkDVfn,0
13.02648400780816,77.68788649094996,SEfDpNVzeelNaGK,0
12.895598719964813,77.61167803749507,JPCeojTmWeRYWhJ,0
12.946902082748045,77.64026762353716,QUJaXWiBBKkgTpjN,1
12.94639485061894,77.64072053049784,QUJaXWiBBKkgTpj,1
12.854813737750405,77.4781577346288,lODmPlofpVmRXKW,0
12.975303322127417,77.48660499458889,iVYRcPiwuQOxSDy,0
12.93467236945789,77.48739121386406,wlOcuPoCEBWqJTi,0
12.979183422921148,77.67876432734182,bFlEZeGoOpaaVZe,0
13.066813115999455,77.55291876016628,JioXnSjdvZSuNZw,0
12.909364078397113,77.62114481997413,NFhmlzMwOOmoKWr,0
12.924660952847027,77.51170723650733,fQHbBeEdgvAUGt,1
12.924036518423318,77.51186235179742,fQHbBeEdzgvAUGt,1
12.987583755374295,77.63107099951371,sKoUkFSJBvTOFF,1
12.987090649041257,77.63059367574962,sKoUkFOSJBvTOFF,1
12.920677399164916,77.5729510224785,ajKHCmqUMnxTxuU,0
13.03770760999834,77.67180915977426,IGuDNqmWuwXkaiP,0
12.918844467732873,77.64907660696345,rDrHuXoJgokHyef,0
12.948175916257435,77.66824462472267,KaZaSkRcMFaUdac,0
12.865538846414491,77.64854955190792,AROOoMEgTBWOHqq,0
12.92429877456067,77.47695724004056,DjuzDBuSZrBlQIV,0
13.007049966902072,77.7081778857164,MPwTlnvCWBXHIMn,0
13.073326027864631,77.71456972904707,uWmKXzOjlhZXQs,1
13.073902792069603,77.71441819595417,uWmxKXzOjlhZXQs,1
13.062398763044676,77.7011303684215,aPrKPjajvEjHVpH,0
13.047998112685,77.46895463660273,OQQDyNRgYkjdRCc,0
13.0597439468183,77.54237896476059,hCEGvxQtzoBRfJy,0
13.030519720873643,77.62704203672175,dFpaEQKAdbzORYo,0
13.043280945333764,77.57728997381611,OghMBdFyVOEMjWB,0
12.957717813750929,77.62460587895474,TiAKWvRnPfqXeiV,0
13.01827587096204,77.45966238040702,nUljQbfjAxYjVaS,0
13.029020191209604,77.66735900896595,dmbOKpzOvFyVBpf,0
13.005787332196348,77.66028360108281,azBwqEmUHRaXmlg,0
13.076478857811829,77.59599746199585,OIThcSUUBtROOgi,0
12.884749337374032,77.47175297166332,bhGfIwOYRxSqpFu,0
12.995891976090135,77.45648221221931,iIyTLUkLoUjJrkn,0
13.063782099342848,77.6456827016346,ZbUWKcgpOnXJNZG,0
13.033027735568874,77.55620739826276,qsiZwgSltWyVxCU,0
12.95045855802672,77.7384303716231,SEmdmtsfazRMxuY,0
13.021468515112346,77.50652431981854,wePsMmkAslPYDiF,0
12.9968986798462,77.62644772197056,ZvXtrOSTssZOGYc,0
12.960578096848112,77.62918321190747,bIKFFsktXsvtfZe,0
12.950086888238422,77.56196547925137,joniUYecYnLiIeF,0
13.090517614272766,77.6889418068191,OrBLtDQNqSAQgsj,0
12.886422910626523,77.6365507687295,IzWfsMRDjvIripJ,0
12.953358746065366,77.62182320738744,EboyxXpTZOpoDM,1
12.954301358493405,77.62272020280771,EbroyxXpTZOpoDM,1
13.06717450543744,77.65580567785742,ZVjRqQJIJsxiDgYa,1
13.067678433648624,77.65543848234206,ZVjRqQJIJsxiDgY,1
12.871524781405068,77.45698991922814,WEpgaFCJZcfYBVq,0
12.99469458551208,77.61453471363615,EreLNZVJnYcrQdpI,1
12.993887220692182,77.6144469219747,EreLNZVJnYcrQdp,1
13.02875068064976,77.4795674581094,RNLOoxcwlwWVBwrd,1
13.02805130861941,77.47880377876963,RNLOoxcwlwWVBwr,1
12.912909083912297,77.61616089555847,cvzaHIoqndOJaOs,0
13.022126889281395,77.72212303561275,AIpoAPIPnVOnqaU,0
13.037235469375386,77.44647334984704,dYMasHbvvrlHiPX,0
13.073852922323493,77.69545853577462,iQRztfUxbzOqDyCe,1
13.0746760009354,77.69581036992739,iQRztfUxbzOqDyC,1
13.0603072216992,77.54634123419967,pnzypKRxYXFiPo,1
13.06073361059828,77.54726897775092,pnzyjpKRxYXFiPo,1
12.893030340944303,77.50830892259339,cyDySGPcmWctjEum,1
12.892890550983031,77.50776494232251,cyDySGPcmWctjEu,1
12.856984812920963,77.66552682007654,JVqCmoJHUMdRDNw,0
12.926531355235804,77.60467645538726,KSpOVunhjKgWgzk,0
13.079804912452335,77.65141881295776,WBbgStWyoUrrJyW,0
13.066852689416075,77.49188921412807,PCsNPaZbEZbYQSK,0
12.981808713961875,77.51781781741803,QgYmKidEQgeYnQl,0
13.002643715584126,77.7027266142496,WxAVaSjJqPCsQWB,0
13.027952099323972,77.47235982343977,jkHGHYibXbEEOdC,0
12.94523830991811,77.45767798028736,vrwClAFlvHlDRAC,0
13.063079643701142,77.57397379615477,EtehKCYKecwZIAg,0
12.966999250552202,77.65064836695905,rPSFZJOJQcNSbWI,0
12.887478219191449,77.50743100498985,rsPpNzmUnBfAQyv,0
13.091667013142068,77.45333645155144,pvfeEiKeUVMsvUy,0
12.9427065079317,77.6482914626324,yMMkCFYYnfPYlwA,0
12.930068469819142,77.53688331156738,YOgIfNOQRoBWUuk,0
13.062066221820343,77.67292415536974,nwZqsGvFZLHzUyI,0
12.869497052035046,77.70062402583817,qfZXNlVywsNzYUy,0
13.067376306077056,77.71947657666463,FXLwjTTJthJeNnhZ,1
13.0681962994772,77.71855949573953,FXLwjTTJthJeNnh,1
12.88579104275853,77.57038508228185,iOcgwiygwmcVAFb,0
12.96652665103158,77.45183247816452,UiQISjeckABfYnV,0
12.891155759828369,77.46815198602235,DfpEgvyWgxcxoYK,0
13.048136562148368,77.49884480159524,upzYzOEtWzMZecW,0
12.859262890681094,77.6791659309717,uoTvYStDGzvdYUD,0
13.003405697471818,77.62114110035779,ukaJVXDnUrGJfCA,0
13.020003284116608,77.60916692474592,YvqLKpKrigHjDKq,0
12.928145309999806,77.49018989332839,pEYUfGOqqHvxBfs,0
13.069008321898496,77.70436088781614,OccUKfpVtalbUfS,0
12.900973761616624,77.64878647536717,ukQyRgxhZoWdSvk,0
12.85836577159033,77.74032555286044,cBVimhYaKofrBpd,0
12.944754113457844,77.68983860465983,rAEldoCNXAUerJy,0
13.03707688659225,77.59266196111066,QWfoYYYeAzcHpWo,0
12.996003460454151,77.67367690536928,rFKvuZlySxEDHMTU,1
12.99657713362603,77.6740174107376,rFKvuZlySxEDHMT,1
12.919003858526423,77.5796268737073,GpxiPwRPYDbOMKQ,0
13.068705410606682,77.67077522104687,rEoobMxDZSNIAtb,0
13.017174323888034,77.69427428077363,DFAXlUxvCbKDIG,1
13.016902494745027,77.69362058607791,DFAXlUxvCboKDIG,1
12.890055658357964,77.51166297290803,SDSAMNjopIkHmAU,0
12.961693185463297,77.49660596319949,zYJKEjRbhmmqgMV,0
12.925601115414349,77.52912788217061,jBubjmrjXNkUlHP,0
12.888204754837906,77.52628533439174,vslHJTaRoVDTObJ,0
12.870001652320086,77.74041418488598,nOrHfcyrOnwjtDu,0
12.949989287748249,77.6658674295362,MmtOZMxNYbKdaib,0
12.91004863445601,77.45815014486884,jOhdhYCYkixZzYb,0
13.058865308711058,77.47415381732763,KEhlYHwWAZWToQa,0
13.033730357239826,77.5678031162813,TrGquzsIufZcvPe,0
12.886822570930509,77.47827693117036,eIZyxephZCDhkCz,0
13.052564782043136,77.50521470397237,mBBjjMtEXJVKVmN,0
12.945072824547829,77.4558150177501,vktwfkewUsUnbnYE,1
12.944160372774723,77.45632412872732,vktwfkewUsUnbnY,1
12.879170361849338,77.50440503432263,LrJaefZhWUYUkZl,0
13.03297292402578,77.59220811711789,jlCiGcNrmVTzmVG,0
13.030160022691703,77.63727035116526,gZwwdRAiLgGjls,1
13.030242750587552,77.6378083271323,gZwwdRAiLgGIjls,1
13.05754439640015,77.58700866016041,FlGZyVxARCtkSvj,0
12.87640909747011,77.61345355756839,mhPCNfxAdRPlApo,0
13.03223006150666,77.67980522599791,EIqhicWQRoKHDHO,0
13.055582639210696,77.5053976906249,kUEgdTTjvYeWUc,1
13.056236095823484,77.50571310740096,kUEgdTTjvYeWEUc,1
12.95594587301428,77.45782641270462,iZTjDIzKJBaFZEP,0
12.920689176158316,77.47939595268318,aJHSeWcNxREvyMj,0
12.895239419779504,77.49867618622412,hCjKyACKsTDzZmT,0
13.038909992338054,77.63935487662158,UmkLhudlSpyOAXS,0
13.030485889331388,77.5331865627531,GZKqcmlNEhjVevk,0
13.05243697256373,77.6085414472052,mKullfVAzlfcACl,0
12.963118981169496,77.66463009193733,EqsjbJgXfIodWDu,0
13.048732989283952,77.5095257399086,uCLlxfFDRUWfhTV,0
13.057047409158049,77.62419983457816,HJTdGhundxbBIzJ,0
13.069122875199335,77.61690646424285,MpYPDLXefWjRgNg,0
12.973563835057382,77.74283967460038,XQmRpOYxRPVLfGT,0
13.047957069663523,77.46885796105411,vCKouYquNHMnfqH,0
12.895881733002064,77.62984541020427,wrUrhRyPTSqYDXf,0
13.03767720339546,77.47018058275656,zQLUReczqMeFPgh,0
12.869834570660892,77.68382109011876,MBZsjzbDCyfDdl,1
12.869562802103095,77.6845639562321,MBZsjzbDCyfDudl,1
12.85265597154686,77.73979628562289,gTGqiLsAdIJURXf,0
13.006144454635692,77.53185570956799,MLamDcEcnmmznQVo,1
13.005811243923317,77.53102750353251,MLamDcEcnmmznQV,1
